     3.02           OBSERVATION DATA    M: Mixed            RINEX VERSION / TYPE
CHC                 CHC                 20220602 033024 UTC PGM / RUN BY / DATE 
3312861                                                     MARKER NAME         
3312861                                                     MARKER NUMBER       
CHC                 CHC                                     OBSERVER / AGENCY   
3312861             CHC I90             2.2.2               REC # / TYPE / VERS 
3312861             CHCI90                                  ANT # / TYPE        
 -2156267.5946  4373762.4864  4097439.3811                  APPROX POSITION XYZ 
        0.3000        0.0000        0.0000                  ANTENNA: DELTA H/E/N
HUACE ANT PHASECENTER                                       COMMENT             
G   24 C1C L1C D1C S1C C2P L2P D2P S2P C2D L2D D2D S2D C2X  SYS / # / OBS TYPES 
       L2X D2X S2X C5I L5I D5I S5I C5Q L5Q D5Q S5Q          SYS / # / OBS TYPES 
R   12 C1C L1C D1C S1C C2C L2C D2C S2C C2P L2P D2P S2P      SYS / # / OBS TYPES 
E   12 C1X L1X D1X S1X C5X L5X D5X S5X C7X L7X D7X S7X      SYS / # / OBS TYPES 
C   24 C1I L1I D1I S1I C1Q L1Q D1Q S1Q C7I L7I D7I S7I C7Q  SYS / # / OBS TYPES 
       L7Q D7Q S7Q C6I L6I D6I S6I C6Q L6Q D6Q S6Q          SYS / # / OBS TYPES 
     2.000                                                  INTERVAL            
  2022     6     2     3    32    2.0000000     GPS         TIME OF FIRST OBS   
G                                                           SYS / PHASE SHIFT   
R                                                           SYS / PHASE SHIFT   
E                                                           SYS / PHASE SHIFT   
C                                                           SYS / PHASE SHIFT   
 C1C    0.000 C1P    0.000 C2C    0.000 C2P    0.000        GLONASS COD/PHS/BIS 
                                                            END OF HEADER       
> 2022  6  2  3 32  2.0000000  0 38
G01  20527270.649   107871535.360       -1989.109          47.500           0.000           0.000           0.000           0.000    20527272.630    84055747.531       -1549.950          46.500           0.000           0.000           0.000           0.000           0.000           0.000           0.000           0.000    20527270.737    80553419.847       -1485.362          52.250  
G03  22371270.242   117561814.244        2376.102          43.000           0.000           0.000           0.000           0.000    22371274.901    91606625.643        1851.435          41.750           0.000           0.000           0.000           0.000           0.000           0.000           0.000           0.000    22371272.829    87789677.432        1774.370          47.750  
G06  24306085.285   127729347.108        3506.681          38.250           0.000           0.000           0.000           0.000    24306092.959    99529393.598        2732.485          41.000           0.000           0.000           0.000           0.000           0.000           0.000           0.000           0.000    24306094.069    95382333.607        2618.688          47.750  
G08  24651165.933   129542743.862       -2773.414          37.250           0.000           0.000           0.000           0.000    24651174.809   100942400.939       -2161.047          35.250           0.000           0.000           0.000           0.000           0.000           0.000           0.000           0.000    24651169.932    96736483.022       -2070.996          43.250  
G14  20254655.000   106438928.080         509.340          47.250           0.000           0.000           0.000           0.000    20254654.315    82939424.215         396.886          46.000           0.000           0.000           0.000           0.000           0.000           0.000           0.000           0.000    20254657.365    79483625.800         380.385          55.000  
G17  21466177.517   112805524.141        1375.601          45.500           0.000           0.000           0.000           0.000    21466177.938    87900398.413        1071.909          43.000           0.000           0.000           0.000           0.000           0.000           0.000           0.000           0.000           0.000           0.000           0.000           0.000  
G19  22902120.461   120351462.330        2609.407          41.750           0.000           0.000           0.000           0.000    22902119.663    93780357.469        2033.304          39.000           0.000           0.000           0.000           0.000           0.000           0.000           0.000           0.000           0.000           0.000           0.000           0.000  
G21  23468699.214   123328844.461       -3078.152          41.500           0.000           0.000           0.000           0.000    23468698.204    96100402.378       -2398.562          37.750           0.000           0.000           0.000           0.000           0.000           0.000           0.000           0.000           0.000           0.000           0.000           0.000  
G28  21511757.357   113045046.431        1965.417          46.750           0.000           0.000           0.000           0.000    21511755.437    88087041.883        1531.507          43.250           0.000           0.000           0.000           0.000           0.000           0.000           0.000           0.000           0.000           0.000           0.000           0.000  
G30  23146832.195   121637420.062       -2973.955          40.750           0.000           0.000           0.000           0.000    23146836.971    94782419.001       -2317.323          42.000           0.000           0.000           0.000           0.000           0.000           0.000           0.000           0.000    23146835.991    90833155.865       -2220.818          49.500  
E02  23411988.529   123030837.916         655.642          45.750    23411989.165    91873674.034         489.582          51.000    23411987.659    94270371.535         502.406          51.500  
E11  23765680.106   124889492.819       -2036.374          40.250    23765676.618    93261618.778       -1520.761          43.750    23765675.077    95694523.542       -1560.445          44.750  
E25  24469210.022   128586562.815       -1930.986          44.500    24469211.883    96022441.944       -1441.971          49.500    24469210.420    98527369.189       -1479.578          51.000  
E30  26995386.744   141861711.242        2649.426          37.500    26995387.911   105935697.686        1978.460          43.750    26995385.835   108699234.608        2030.064          44.500  
E34  26255341.113   137972746.817        2395.101          39.000    26255346.801   103031619.955        1788.470          47.250    26255344.184   105719390.238        1835.213          47.000  
E36  23383923.321   122883346.843         302.354          45.000    23383925.082    91763543.647         225.841          50.750    23383923.660    94157370.213         231.689          51.500  
C01  38057531.834   198175555.641          35.123          43.250           0.000           0.000           0.000           0.000    38057530.934   153241905.564          27.152          44.250           0.000           0.000           0.000           0.000    38057532.979   161033877.179          28.571          42.500           0.000           0.000           0.000           0.000  
C02  38427686.461   200103047.521          39.333          38.750           0.000           0.000           0.000           0.000    38427681.659   154732350.345          30.496          44.750           0.000           0.000           0.000           0.000    38427685.141   162600110.332          31.933          41.750           0.000           0.000           0.000           0.000  
C03  37699506.931   196311224.146          67.543          43.500           0.000           0.000           0.000           0.000    37699504.401   151800281.145          52.196          46.250           0.000           0.000           0.000           0.000    37699504.370   159518940.631          54.797          43.500           0.000           0.000           0.000           0.000  
C04  38900661.922   202565948.465          20.269          39.750           0.000           0.000           0.000           0.000    38900658.325   156636830.862          15.706          42.750           0.000           0.000           0.000           0.000    38900659.091   164601417.936          16.445          41.250           0.000           0.000           0.000           0.000  
C05  39949786.527   208029022.255          42.360          34.500           0.000           0.000           0.000           0.000    39949787.467   160861236.224          32.712          39.500           0.000           0.000           0.000           0.000    39949788.244   169040626.823          34.373          39.250           0.000           0.000           0.000           0.000  
C07  35822869.338   186539079.497          70.988          47.500           0.000           0.000           0.000           0.000    35822862.416   144243822.490          54.869          49.000           0.000           0.000           0.000           0.000    35822861.706   151578250.463          57.665          48.000           0.000           0.000           0.000           0.000  
C08  37798066.015   196824445.435        1471.753          42.000           0.000           0.000           0.000           0.000    37798060.927   152197133.073        1138.034          45.500           0.000           0.000           0.000           0.000    37798060.149   159935962.713        1195.881          43.750           0.000           0.000           0.000           0.000  
C10  36064737.004   187798553.638         380.588          47.000           0.000           0.000           0.000           0.000    36064733.815   145217739.788         294.218          48.000           0.000           0.000           0.000           0.000    36064732.178   152601683.221         309.160          47.000           0.000           0.000           0.000           0.000  
C11  23672453.769   123268683.340        1939.845          44.000           0.000           0.000           0.000           0.000    23672453.025    95319159.689        1500.086          48.000           0.000           0.000           0.000           0.000    23672451.204   100165884.497        1576.252          46.750           0.000           0.000           0.000           0.000  
C12  21955023.284   114325564.576        -241.349          49.000           0.000           0.000           0.000           0.000    21955020.157    88403766.938        -186.651          51.750           0.000           0.000           0.000           0.000    21955019.511    92898871.720        -196.102          51.000           0.000           0.000           0.000           0.000  
C13  38805735.344   202071648.549        1455.418          42.500           0.000           0.000           0.000           0.000    38805740.113   156254630.999        1125.452          43.500           0.000           0.000           0.000           0.000    38805737.268   164199775.139        1182.638          43.000           0.000           0.000           0.000           0.000  
C22  25583151.517   133218176.349        1843.333          43.750           0.000           0.000           0.000           0.000           0.000           0.000           0.000           0.000           0.000           0.000           0.000           0.000    25583145.670   108250661.800        1498.039          42.750           0.000           0.000           0.000           0.000  
C23  26575139.512   138383729.663        2798.078          39.750           0.000           0.000           0.000           0.000           0.000           0.000           0.000           0.000           0.000           0.000           0.000           0.000    26575132.214   112448080.079        2273.654          41.250           0.000           0.000           0.000           0.000  
C24  23383861.719   121765903.755       -2497.264          48.500           0.000           0.000           0.000           0.000           0.000           0.000           0.000           0.000           0.000           0.000           0.000           0.000    23383858.122    98944756.804       -2029.214          50.000           0.000           0.000           0.000           0.000  
C25  23238197.526   121007392.681         640.781          47.750           0.000           0.000           0.000           0.000           0.000           0.000           0.000           0.000           0.000           0.000           0.000           0.000    23238195.322    98328408.291         520.719          49.250           0.000           0.000           0.000           0.000  
C34  22537356.308   117357928.071        1228.799          49.250           0.000           0.000           0.000           0.000           0.000           0.000           0.000           0.000           0.000           0.000           0.000           0.000    22537355.649    95362927.139         998.515          50.000           0.000           0.000           0.000           0.000  
C38  37044299.345   192899389.635        1209.763          47.750           0.000           0.000           0.000           0.000           0.000           0.000           0.000           0.000           0.000           0.000           0.000           0.000    37044296.121   156746539.651         983.046          49.000           0.000           0.000           0.000           0.000  
C40  35881434.888   186844048.031          72.460          49.750           0.000           0.000           0.000           0.000           0.000           0.000           0.000           0.000           0.000           0.000           0.000           0.000    35881431.606   151826079.310          58.848          50.250           0.000           0.000           0.000           0.000  
C44  22049390.420   114816963.771       -1357.148          50.750           0.000           0.000           0.000           0.000           0.000           0.000           0.000           0.000           0.000           0.000           0.000           0.000    22049388.266    93298178.351       -1102.763          50.750           0.000           0.000           0.000           0.000  
C56  35620222.567   185483847.586         176.889          48.500           0.000           0.000           0.000           0.000           0.000           0.000           0.000           0.000           0.000           0.000           0.000           0.000    35620221.684   150720815.630         143.738          48.000           0.000           0.000           0.000           0.000  
C57  31967661.979   166464006.267       -2256.145          45.000           0.000           0.000           0.000           0.000           0.000           0.000           0.000           0.000           0.000           0.000           0.000           0.000    31967784.021   135266156.370       -1833.339          45.500           0.000           0.000           0.000           0.000  
C59  38023247.881   197997029.683          10.043          45.500           0.000           0.000           0.000           0.000           0.000           0.000           0.000           0.000           0.000           0.000           0.000           0.000    38023234.299   160888747.261           8.184          46.500           0.000           0.000           0.000           0.000  
> 2022  6  2  3 32  4.0000000  0 44
G01  20528027.937   107875515.231       -1990.637          47.500           0.000           0.000           0.000           0.000    20528030.138    84058848.737       -1551.161          46.500           0.000           0.000           0.000           0.000           0.000           0.000           0.000           0.000    20528028.053    80556391.832       -1486.544          52.000  
G03  22370366.023   117557063.716        2374.640          43.000           0.000           0.000           0.000           0.000    22370370.882    91602923.909        1850.392          41.750           0.000           0.000           0.000           0.000           0.000           0.000           0.000           0.000    22370368.836    87786129.960        1773.224          47.500  
G06  24304750.901   127722334.618        3506.010          38.250           0.000           0.000           0.000           0.000    24304758.793    99523929.340        2731.908          41.000           0.000           0.000           0.000           0.000           0.000           0.000           0.000           0.000    24304759.668    95377097.049        2617.980          47.750  
G08  24652221.814   129548291.411       -2773.991          37.500           0.000           0.000           0.000           0.000    24652230.793   100946723.681       -2161.559          35.250           0.000           0.000           0.000           0.000           0.000           0.000           0.000           0.000    24652225.559    96740625.680       -2071.583          43.250  
G14  20254461.452   106437911.208         507.617          47.000           0.000           0.000           0.000           0.000    20254460.824    82938631.855         395.545          46.000           0.000           0.000           0.000           0.000           0.000           0.000           0.000           0.000    20254463.860    79482866.449         379.090          54.750  
G17  21465654.277   112802773.908        1374.772          45.750           0.000           0.000           0.000           0.000    21465654.412    87898255.388        1071.173          42.750           0.000           0.000           0.000           0.000           0.000           0.000           0.000           0.000           0.000           0.000           0.000           0.000  
G19  22901127.675   120346244.410        2608.635          42.000           0.000           0.000           0.000           0.000    22901126.712    93776291.578        2032.699          39.000           0.000           0.000           0.000           0.000           0.000           0.000           0.000           0.000           0.000           0.000           0.000           0.000  
G21  23469870.775   123335001.522       -3078.832          41.750           0.000           0.000           0.000           0.000    23469869.903    96105200.079       -2399.093          37.750           0.000           0.000           0.000           0.000           0.000           0.000           0.000           0.000           0.000           0.000           0.000           0.000  
G28  21511009.609   113041116.990        1964.215          46.750           0.000           0.000           0.000           0.000    21511007.736    88083979.975        1530.539          43.000           0.000           0.000           0.000           0.000           0.000           0.000           0.000           0.000           0.000           0.000           0.000           0.000  
G30  23147964.202   121643369.174       -2975.063          40.500           0.000           0.000           0.000           0.000    23147968.936    94787054.658       -2318.180          41.750           0.000           0.000           0.000           0.000           0.000           0.000           0.000           0.000    23147968.101    90837598.375       -2221.628          49.500  
R02  23250274.475   124067918.190        1480.371          41.000           0.000           0.000           0.000           0.000    23250284.870    96497312.596        1151.800          39.250  
R09  21072650.442   112526777.218        2880.389          49.500           0.000           0.000           0.000           0.000    21072650.637    87520828.215        2240.492          48.250  
R15  22363243.952   119502395.504       -4295.910          47.750           0.000           0.000           0.000           0.000    22363250.414    92946333.011       -3341.451          43.750  
R17  22656317.060   121238528.471       -3350.053          47.000           0.000           0.000           0.000           0.000    22656323.821    94296660.480       -2605.280          43.750  
R18  19777029.138   105571124.689       -1525.488          52.500           0.000           0.000           0.000           0.000    19777027.445    82110868.291       -1186.525          49.000  
R19  20266245.947   108410749.860        1398.273          38.500           0.000           0.000           0.000           0.000    20266248.170    84319480.787        1087.599          45.750  
E02  23411739.237   123029528.110         654.319          45.750    23411739.922    91872695.939         488.577          51.000    23411738.411    94269367.916         501.382          51.750  
E11  23766455.708   124893566.963       -2037.454          40.250    23766451.916    93264661.149       -1521.516          43.500    23766450.377    95697645.279       -1561.153          45.000  
E25  24469945.059   128590426.151       -1932.159          44.500    24469947.037    96025326.906       -1442.903          49.250    24469945.608    98530329.406       -1480.519          51.250  
E30  26994378.422   141856413.302        2648.663          37.500    26994379.704   105931741.447        1977.864          43.500    26994377.573   108695175.144        2029.533          44.500  
E34  26254429.826   137967957.800        2394.048          39.250    26254435.457   103028043.748        1787.790          47.000    26254432.852   105715720.722        1834.486          47.000  
E36  23383808.705   122882743.421         301.180          45.250    23383810.256    91763093.054         224.835          50.750    23383808.826    94156907.857         230.730          51.500  
C01  38057518.549   198175486.314          34.378          43.250           0.000           0.000           0.000           0.000    38057517.662   153241851.940          26.622          44.500           0.000           0.000           0.000           0.000    38057519.683   161033820.827          28.040          42.500           0.000           0.000           0.000           0.000  
C02  38427671.554   200102969.468          38.709          38.750           0.000           0.000           0.000           0.000    38427666.666   154732289.981          30.067          45.000           0.000           0.000           0.000           0.000    38427670.154   162600046.906          31.448          41.750           0.000           0.000           0.000           0.000  
C03  37699481.159   196311089.892          66.909          43.500           0.000           0.000           0.000           0.000    37699478.599   151800177.335          51.711          46.250           0.000           0.000           0.000           0.000    37699478.587   159518831.538          54.229          43.500           0.000           0.000           0.000           0.000  
C04  38900654.250   202565908.591          19.728          39.750           0.000           0.000           0.000           0.000    38900650.620   156636800.037          15.185          42.750           0.000           0.000           0.000           0.000    38900651.412   164601385.540          15.923          41.000           0.000           0.000           0.000           0.000  
C05  39949770.607   208028938.229          41.782          34.750           0.000           0.000           0.000           0.000    39949771.306   160861171.270          32.386          39.750           0.000           0.000           0.000           0.000    39949772.159   169040558.573          33.879          39.250           0.000           0.000           0.000           0.000  
C07  35822842.233   186538938.374          70.290          47.500           0.000           0.000           0.000           0.000    35822835.305   144243713.357          54.366          49.000           0.000           0.000           0.000           0.000    35822834.591   151578135.784          57.088          48.000           0.000           0.000           0.000           0.000  
C08  37797500.913   196821502.869        1470.869          42.000           0.000           0.000           0.000           0.000    37797495.913   152194857.681        1137.457          45.500           0.000           0.000           0.000           0.000    37797495.040   159933571.624        1195.266          43.500           0.000           0.000           0.000           0.000  
C10  36064591.046   187797793.432         379.852          47.000           0.000           0.000           0.000           0.000    36064587.836   145217151.925         293.818          48.000           0.000           0.000           0.000           0.000    36064586.189   152601065.476         308.675          46.750           0.000           0.000           0.000           0.000  
C11  23671708.961   123264804.701        1938.942          44.000           0.000           0.000           0.000           0.000    23671708.185    95316160.491        1499.294          48.000           0.000           0.000           0.000           0.000    23671706.330   100162732.787        1575.507          46.750           0.000           0.000           0.000           0.000  
C12  21955116.291   114326048.536        -242.457          49.000           0.000           0.000           0.000           0.000    21955113.097    88404141.156        -187.490          51.750           0.000           0.000           0.000           0.000    21955112.442    92899264.973        -197.033          51.000           0.000           0.000           0.000           0.000  
C13  38805176.401   202068738.440        1454.682          42.500           0.000           0.000           0.000           0.000    38805181.372   156252380.727        1124.874          43.750           0.000           0.000           0.000           0.000    38805178.373   164197410.433        1182.070          43.000           0.000           0.000           0.000           0.000  
C22  25582443.934   133214490.933        1842.103          43.750           0.000           0.000           0.000           0.000           0.000           0.000           0.000           0.000           0.000           0.000           0.000           0.000    25582437.905   108247667.124        1496.810          42.500           0.000           0.000           0.000           0.000  
C23  26574065.003   138378134.698        2796.970          39.500           0.000           0.000           0.000           0.000           0.000           0.000           0.000           0.000           0.000           0.000           0.000           0.000    26574057.693   112443533.707        2272.834          41.250           0.000           0.000           0.000           0.000  
C24  23384821.155   121770899.639       -2498.549          48.500           0.000           0.000           0.000           0.000           0.000           0.000           0.000           0.000           0.000           0.000           0.000           0.000    23384817.568    98948816.373       -2030.267          49.750           0.000           0.000           0.000           0.000  
C25  23237951.719   121006112.945         639.058          47.750           0.000           0.000           0.000           0.000           0.000           0.000           0.000           0.000           0.000           0.000           0.000           0.000    23237949.569    98327368.398         519.303          49.000           0.000           0.000           0.000           0.000  
C34  22536884.539   117355471.663        1227.738          49.250           0.000           0.000           0.000           0.000           0.000           0.000           0.000           0.000           0.000           0.000           0.000           0.000    22536883.940    95360931.113         997.593          50.000           0.000           0.000           0.000           0.000  
C38  37043834.894   192896971.169        1208.869          47.500           0.000           0.000           0.000           0.000           0.000           0.000           0.000           0.000           0.000           0.000           0.000           0.000    37043831.683   156744574.443         982.292          48.750           0.000           0.000           0.000           0.000  
C40  35881407.213   186843903.937          71.761          49.500           0.000           0.000           0.000           0.000           0.000           0.000           0.000           0.000           0.000           0.000           0.000           0.000    35881403.928   151825962.222          58.298          50.000           0.000           0.000           0.000           0.000  
C44  22049911.843   114819679.121       -1358.070          50.750           0.000           0.000           0.000           0.000           0.000           0.000           0.000           0.000           0.000           0.000           0.000           0.000    22049909.714    93300384.795       -1103.545          50.750           0.000           0.000           0.000           0.000  
C56  35620154.765   185483494.627         176.200          48.500           0.000           0.000           0.000           0.000           0.000           0.000           0.000           0.000           0.000           0.000           0.000           0.000    35620153.914   150720528.826         143.151          47.750           0.000           0.000           0.000           0.000  
C57  31968528.727   166468519.514       -2256.946          45.000           0.000           0.000           0.000           0.000           0.000           0.000           0.000           0.000           0.000           0.000           0.000           0.000    31968650.739   135269823.736       -1833.916          45.250           0.000           0.000           0.000           0.000  
C59  38023244.119   197997010.308           9.465          45.500           0.000           0.000           0.000           0.000           0.000           0.000           0.000           0.000           0.000           0.000           0.000           0.000    38023230.565   160888731.511           7.718          46.250           0.000           0.000           0.000           0.000  
> 2022  6  2  3 32  6.0000000  0 43
G01  20528785.789   107879497.775       -1991.633          47.750           0.000           0.000           0.000           0.000    20528788.078    84061952.028       -1551.925          46.500           0.000           0.000           0.000           0.000           0.000           0.000           0.000           0.000    20528785.885    80559365.811       -1487.299          52.000  
G03  22369462.396   117552315.682        2373.662          42.750           0.000           0.000           0.000           0.000    22369467.275    91599224.148        1849.703          41.250           0.000           0.000           0.000           0.000           0.000           0.000           0.000           0.000    22369465.293    87782584.353        1772.573          47.250  
G06  24303416.767   127715323.495        3505.573          38.750           0.000           0.000           0.000           0.000    24303424.862    99518466.132        2731.619          41.250           0.000           0.000           0.000           0.000           0.000           0.000           0.000           0.000    24303425.498    95371861.474        2617.757          47.750  
G08  24653277.836   129553839.764       -2774.019          37.750           0.000           0.000           0.000           0.000    24653286.800   100951047.060       -2161.503          35.250           0.000           0.000           0.000           0.000           0.000           0.000           0.000           0.000    24653281.367    96744768.904       -2071.517          43.000  
G14  20254268.451   106436897.202         506.649          47.250           0.000           0.000           0.000           0.000    20254267.849    82937841.711         394.791          46.000           0.000           0.000           0.000           0.000           0.000           0.000           0.000           0.000    20254270.902    79482109.232         378.317          54.750  
G17  21465131.231   112800025.051        1374.418          45.750           0.000           0.000           0.000           0.000    21465131.168    87896113.417        1070.922          42.750           0.000           0.000           0.000           0.000           0.000           0.000           0.000           0.000           0.000           0.000           0.000           0.000  
G19  22900135.133   120341027.648        2608.374          42.250           0.000           0.000           0.000           0.000    22900134.021    93772226.548        2032.494          39.250           0.000           0.000           0.000           0.000           0.000           0.000           0.000           0.000           0.000           0.000           0.000           0.000  
G21  23471042.604   123341159.539       -3078.971          41.750           0.000           0.000           0.000           0.000    23471041.807    96109998.508       -2399.195          37.750           0.000           0.000           0.000           0.000           0.000           0.000           0.000           0.000           0.000           0.000           0.000           0.000  
G28  21510262.244   113037189.437        1963.628          47.000           0.000           0.000           0.000           0.000    21510260.361    88080919.537        1530.120          43.000           0.000           0.000           0.000           0.000           0.000           0.000           0.000           0.000           0.000           0.000           0.000           0.000  
G30  23149096.507   121649319.901       -2975.483          40.500           0.000           0.000           0.000           0.000    23149101.312    94791691.580       -2318.533          41.750           0.000           0.000           0.000           0.000           0.000           0.000           0.000           0.000    23149100.512    90842042.081       -2221.917          49.500  
R02  23249717.979   124064958.574        1479.439          41.250           0.000           0.000           0.000           0.000    23249730.914    96495015.736        1150.440          39.000  
R09  21071571.092   112521017.485        2879.430          49.000           0.000           0.000           0.000           0.000    21071572.497    87516348.432        2239.570          48.500  
R15  22364850.915   119510982.483       -4296.627          47.750           0.000           0.000           0.000           0.000    22364858.963    92953019.423       -3341.833          43.750  
R17  22657569.388   121245230.226       -3349.671          47.000           0.000           0.000           0.000           0.000    22657574.962    94301868.402       -2605.317          43.500  
R18  19777600.145   105574172.167       -1525.963          52.500           0.000           0.000           0.000           0.000    19777599.530    82113243.659       -1186.842          49.250  
R19  20265724.205   108407958.038        1397.612          38.500           0.000           0.000           0.000           0.000    20265725.414    84317306.272        1086.965          45.750  
E02  23411490.356   123028220.495         653.630          45.750    23411491.085    91871719.473         488.055          50.500    23411489.581    94268365.985         500.758          51.750  
E11  23767231.448   124897642.443       -2037.836          40.250    23767227.466    93267704.515       -1521.776          43.250    23767225.922    95700768.045       -1561.479          44.750  
E25  24470680.526   128594291.467       -1932.811          44.750    24470682.581    96028213.325       -1443.331          49.000    24470681.170    98533291.133       -1481.013          51.250  
E30  26993370.258   141851116.478        2648.393          37.500    26993371.691   105927786.038        1977.687          43.000    26993369.555   108691116.560        2029.282          44.500  
E34  26253518.798   137963170.268        2393.704          39.250    26253524.373   103024468.646        1787.530          46.500    26253521.810   105712052.365        1834.132          46.750  
E36  23383694.418   122882142.058         300.482          45.250    23383695.822    91762643.970         224.407          50.250    23383694.383    94156447.064         230.218          51.500  
C01  38057505.394   198175417.611          34.490          43.500           0.000           0.000           0.000           0.000    38057504.512   153241798.815          26.696          44.500           0.000           0.000           0.000           0.000    38057506.498   161033765.007          28.105          42.500           0.000           0.000           0.000           0.000  
C02  38427656.760   200102892.050          38.876          39.000           0.000           0.000           0.000           0.000    38427651.837   154732230.129          30.002          45.000           0.000           0.000           0.000           0.000    38427655.288   162599983.998          31.635          41.750           0.000           0.000           0.000           0.000  
C03  37699455.478   196310956.278          67.049          43.500           0.000           0.000           0.000           0.000    37699452.913   151800074.018          51.730          46.500           0.000           0.000           0.000           0.000    37699452.934   159518722.963          54.424          43.500           0.000           0.000           0.000           0.000  
C04  38900646.689   202565869.377          19.831          40.000           0.000           0.000           0.000           0.000    38900643.006   156636769.697          15.343          42.750           0.000           0.000           0.000           0.000    38900643.858   164601353.649          16.119          41.000           0.000           0.000           0.000           0.000  
C05  39949754.889   208028854.887          41.875          35.000           0.000           0.000           0.000           0.000    39949755.257   160861106.808          32.331          39.750           0.000           0.000           0.000           0.000    39949756.171   169040490.809          34.187          39.250           0.000           0.000           0.000           0.000  
C07  35822815.275   186538798.088          70.271          47.500           0.000           0.000           0.000           0.000    35822808.335   144243604.884          54.272          49.000           0.000           0.000           0.000           0.000    35822807.639   151578021.792          57.041          48.000           0.000           0.000           0.000           0.000  
C08  37796936.025   196818561.460        1470.757          42.250           0.000           0.000           0.000           0.000    37796931.127   152192583.211        1137.289          45.750           0.000           0.000           0.000           0.000    37796930.170   159931181.495        1195.062          43.750           0.000           0.000           0.000           0.000  
C10  36064445.241   187797033.958         379.834          47.000           0.000           0.000           0.000           0.000    36064441.992   145216564.662         293.734          48.250           0.000           0.000           0.000           0.000    36064440.351   152600448.349         308.647          46.750           0.000           0.000           0.000           0.000  
C11  23670964.408   123260927.515        1938.495          44.500           0.000           0.000           0.000           0.000    23670963.630    95313162.400        1498.968          48.250           0.000           0.000           0.000           0.000    23670961.757   100159582.254        1575.199          46.750           0.000           0.000           0.000           0.000  
C12  21955209.617   114326534.142        -242.923          49.250           0.000           0.000           0.000           0.000    21955206.353    88404516.660        -187.853          51.750           0.000           0.000           0.000           0.000    21955205.689    92899659.560        -197.350          51.000           0.000           0.000           0.000           0.000  
C13  38804617.679   202065829.400        1454.552          42.500           0.000           0.000           0.000           0.000    38804622.814   156250131.272        1124.763          44.000           0.000           0.000           0.000           0.000    38804619.709   164195046.604        1182.004          42.750           0.000           0.000           0.000           0.000  
C22  25581736.626   133210807.525        1841.507          43.750           0.000           0.000           0.000           0.000           0.000           0.000           0.000           0.000           0.000           0.000           0.000           0.000    25581730.503   108244674.049        1496.382          42.750           0.000           0.000           0.000           0.000  
C24  23385780.991   121775897.587       -2499.201          48.750           0.000           0.000           0.000           0.000           0.000           0.000           0.000           0.000           0.000           0.000           0.000           0.000    23385777.396    98952877.606       -2030.770          50.000           0.000           0.000           0.000           0.000  
C25  23237706.502   121004836.029         638.071          47.750           0.000           0.000           0.000           0.000           0.000           0.000           0.000           0.000           0.000           0.000           0.000           0.000    23237704.358    98326330.807         518.484          49.000           0.000           0.000           0.000           0.000  
C34  22536413.068   117353016.874        1227.309          49.500           0.000           0.000           0.000           0.000           0.000           0.000           0.000           0.000           0.000           0.000           0.000           0.000    22536412.548    95358936.397         997.277          50.000           0.000           0.000           0.000           0.000  
C38  37043370.662   192894553.876        1208.655          47.750           0.000           0.000           0.000           0.000           0.000           0.000           0.000           0.000           0.000           0.000           0.000           0.000    37043367.457   156742610.206         982.096          48.750           0.000           0.000           0.000           0.000  
C40  35881379.698   186843760.636          71.789          49.750           0.000           0.000           0.000           0.000           0.000           0.000           0.000           0.000           0.000           0.000           0.000           0.000    35881376.410   151825845.779          58.308          50.000           0.000           0.000           0.000           0.000  
C44  22050433.548   114822395.874       -1358.405          51.000           0.000           0.000           0.000           0.000           0.000           0.000           0.000           0.000           0.000           0.000           0.000           0.000    22050431.446    93302592.377       -1103.815          50.750           0.000           0.000           0.000           0.000  
C56  35620087.147   185483142.626         176.098          48.500           0.000           0.000           0.000           0.000           0.000           0.000           0.000           0.000           0.000           0.000           0.000           0.000    35620086.318   150720242.794         143.114          47.750           0.000           0.000           0.000           0.000  
C57  31969395.647   166473033.685       -2257.029          45.250           0.000           0.000           0.000           0.000           0.000           0.000           0.000           0.000           0.000           0.000           0.000           0.000    31969517.639   135273491.877       -1834.009          45.250           0.000           0.000           0.000           0.000  
C59  38023240.482   197996991.555           9.568          45.750           0.000           0.000           0.000           0.000           0.000           0.000           0.000           0.000           0.000           0.000           0.000           0.000    38023226.958   160888716.282           7.802          46.250           0.000           0.000           0.000           0.000  
> 2022  6  2  3 32  8.0000000  0 43
G01  20529544.059   107883482.463       -1993.151          47.750           0.000           0.000           0.000           0.000    20529546.410    84065056.968       -1553.154          46.750           0.000           0.000           0.000           0.000           0.000           0.000           0.000           0.000    20529544.120    80562341.383       -1488.426          52.250  
G03  22368559.199   117547569.603        2372.246          43.000           0.000           0.000           0.000           0.000    22368564.070    91595525.924        1848.437          41.750           0.000           0.000           0.000           0.000           0.000           0.000           0.000           0.000    22368562.125    87779040.215        1771.501          47.750  
G06  24302082.755   127708313.158        3504.725          38.750           0.000           0.000           0.000           0.000    24302091.043    99513003.543        2730.958          41.250           0.000           0.000           0.000           0.000           0.000           0.000           0.000           0.000    24302091.477    95366626.497        2617.142          48.000  
G08  24654333.813   129559388.315       -2774.689          38.000           0.000           0.000           0.000           0.000    24654342.808   100955370.585       -2162.267          35.000           0.000           0.000           0.000           0.000           0.000           0.000           0.000           0.000    24654337.182    96748912.276       -2071.992          42.750  
G14  20254075.901   106435885.542         504.926          47.250           0.000           0.000           0.000           0.000    20254075.323    82937053.420         393.459          45.750           0.000           0.000           0.000           0.000           0.000           0.000           0.000           0.000    20254078.385    79481353.774         377.060          55.000  
G17  21464608.292   112797276.990        1373.552          45.750           0.000           0.000           0.000           0.000    21464608.157    87893972.066        1070.261          43.000           0.000           0.000           0.000           0.000           0.000           0.000           0.000           0.000           0.000           0.000           0.000           0.000  
G19  22899142.617   120335811.504        2607.666          42.000           0.000           0.000           0.000           0.000    22899141.409    93768162.073        2031.944          39.250           0.000           0.000           0.000           0.000           0.000           0.000           0.000           0.000           0.000           0.000           0.000           0.000  
G21  23472214.551   123347317.996       -3079.651          42.000           0.000           0.000           0.000           0.000    23472213.790    96114797.326       -2399.726          37.750           0.000           0.000           0.000           0.000           0.000           0.000           0.000           0.000           0.000           0.000           0.000           0.000  
G28  21509515.145   113033263.225        1962.418          47.000           0.000           0.000           0.000           0.000    21509513.237    88077860.165        1529.151          43.000           0.000           0.000           0.000           0.000           0.000           0.000           0.000           0.000           0.000           0.000           0.000           0.000  
G30  23150229.051   121655271.724       -2976.647          40.250           0.000           0.000           0.000           0.000    23150233.974    94796329.326       -2319.288          42.000           0.000           0.000           0.000           0.000           0.000           0.000           0.000           0.000    23150233.127    90846486.598       -2222.652          49.250  
R02  23249164.383   124062001.732        1477.344          40.500           0.000           0.000           0.000           0.000    23249176.131    96492715.977        1148.950          38.250  
R09  21070493.067   112515260.335        2877.576          49.250           0.000           0.000           0.000           0.000    21070494.321    87511870.656        2238.126          48.500  
R15  22366459.255   119519576.663       -4297.726          47.750           0.000           0.000           0.000           0.000    22366467.100    92959703.759       -3342.615          44.250  
R17  22658821.563   121251930.046       -3350.239          46.750           0.000           0.000           0.000           0.000    22658826.734    94307079.373       -2605.727          43.250  
R18  19778171.963   105577225.210       -1527.267          52.250           0.000           0.000           0.000           0.000    19778171.357    82115618.243       -1187.867          49.000  
R19  20265201.005   108405164.287        1396.131          38.250           0.000           0.000           0.000           0.000    20265203.021    84315133.353        1085.876          46.250  
E02  23411241.836   123026914.556         652.224          45.750    23411242.566    91870744.260         487.059          50.750    23411241.064    94267365.321         499.836          51.500  
E11  23768007.150   124901718.662       -2038.526          40.500    23768003.144    93270748.467       -1522.335          43.500    23768001.621    95703891.394       -1562.029          44.750  
E25  24471416.278   128598158.223       -1934.078          44.750    24471418.401    96031100.840       -1444.272          49.000    24471417.002    98536253.968       -1481.963          51.000  
E30  26992362.254   141845820.232        2647.694          37.750    26992363.798   105923831.032        1977.193          43.500    26992361.659   108687058.380        2028.760          45.000  
E34  26252607.929   137958383.698        2392.717          39.250    26252613.493   103020894.265        1786.775          46.500    26252610.948   105708384.742        1833.350          46.500  
E36  23383580.435   122881542.194         299.234          45.250    23383581.675    91762196.026         223.448          50.500    23383580.225    94155987.430         229.296          51.250  
C01  38057492.241   198175349.028          34.015          43.500           0.000           0.000           0.000           0.000    38057491.364   153241745.789          26.202          44.500           0.000           0.000           0.000           0.000    38057493.326   161033709.281          27.583          42.500           0.000           0.000           0.000           0.000  
C02  38427642.049   200102814.777          38.113          38.750           0.000           0.000           0.000           0.000    38427637.052   154732170.371          29.602          45.000           0.000           0.000           0.000           0.000    38427640.470   162599921.192          31.188          41.750           0.000           0.000           0.000           0.000  
C03  37699429.826   196310822.798          66.350          43.500           0.000           0.000           0.000           0.000    37699427.246   151799970.782          51.367          46.250           0.000           0.000           0.000           0.000    37699427.292   159518614.473          53.921          43.250           0.000           0.000           0.000           0.000  
C04  38900639.215   202565830.293          19.188          39.750           0.000           0.000           0.000           0.000    38900635.436   156636739.463          14.868          43.000           0.000           0.000           0.000           0.000    38900636.368   164601321.905          15.653          41.000           0.000           0.000           0.000           0.000  
C05  39949739.131   208028771.631          41.251          35.000           0.000           0.000           0.000           0.000    39949739.217   160861042.421          31.967          39.750           0.000           0.000           0.000           0.000    39949740.164   169040423.150          33.740          39.000           0.000           0.000           0.000           0.000  
C07  35822788.388   186538658.122          69.666          47.500           0.000           0.000           0.000           0.000    35822781.413   144243496.643          53.770          49.250           0.000           0.000           0.000           0.000    35822780.749   151577908.044          56.557          48.000           0.000           0.000           0.000           0.000  
C08  37796371.288   196815620.722        1469.909          42.000           0.000           0.000           0.000           0.000    37796366.473   152190309.256        1136.637          46.000           0.000           0.000           0.000           0.000    37796365.438   159928791.908        1194.391          43.500           0.000           0.000           0.000           0.000  
C10  36064299.491   187796274.757         379.238          47.000           0.000           0.000           0.000           0.000    36064296.193   145215977.600         293.241          48.250           0.000           0.000           0.000           0.000    36064294.559   152599831.438         308.126          46.750           0.000           0.000           0.000           0.000  
C11  23670220.007   123257051.198        1937.601          44.250           0.000           0.000           0.000           0.000    23670219.220    95310164.986        1498.335          48.250           0.000           0.000           0.000           0.000    23670217.361   100156432.430        1574.454          46.750           0.000           0.000           0.000           0.000  
C12  21955303.136   114327020.872        -243.985          49.000           0.000           0.000           0.000           0.000    21955299.821    88404893.028        -188.672          51.750           0.000           0.000           0.000           0.000    21955299.160    92900055.068        -198.225          50.750           0.000           0.000           0.000           0.000  
C13  38804059.107   202062920.810        1453.760          42.500           0.000           0.000           0.000           0.000    38804064.304   156247882.195        1124.139          44.000           0.000           0.000           0.000           0.000    38804061.140   164192683.166        1181.306          42.750           0.000           0.000           0.000           0.000  
C22  25581029.595   133207125.625        1840.315          43.250           0.000           0.000           0.000           0.000           0.000           0.000           0.000           0.000           0.000           0.000           0.000           0.000    25581023.418   108241682.205        1495.432          42.750           0.000           0.000           0.000           0.000  
C24  23386741.115   121780897.069       -2500.347          48.500           0.000           0.000           0.000           0.000           0.000           0.000           0.000           0.000           0.000           0.000           0.000           0.000    23386737.513    98956940.098       -2031.813          49.750           0.000           0.000           0.000           0.000  
C25  23237461.740   121003561.424         636.478          47.750           0.000           0.000           0.000           0.000           0.000           0.000           0.000           0.000           0.000           0.000           0.000           0.000    23237459.591    98325295.085         517.152          49.000           0.000           0.000           0.000           0.000  
C34  22535941.830   117350563.189        1226.266          49.500           0.000           0.000           0.000           0.000           0.000           0.000           0.000           0.000           0.000           0.000           0.000           0.000    22535941.360    95356942.579         996.410          49.750           0.000           0.000           0.000           0.000  
C38  37042906.565   192892137.264        1207.891          47.500           0.000           0.000           0.000           0.000           0.000           0.000           0.000           0.000           0.000           0.000           0.000           0.000    37042903.363   156740646.508         981.472          48.750           0.000           0.000           0.000           0.000  
C40  35881352.241   186843617.626          71.184          49.750           0.000           0.000           0.000           0.000           0.000           0.000           0.000           0.000           0.000           0.000           0.000           0.000    35881348.949   151825729.573          57.824          50.000           0.000           0.000           0.000           0.000  
C44  22050955.432   114825113.505       -1359.328          50.750           0.000           0.000           0.000           0.000           0.000           0.000           0.000           0.000           0.000           0.000           0.000           0.000    22050953.343    93304800.672       -1104.560          50.750           0.000           0.000           0.000           0.000  
C56  35620019.628   185482791.061         175.399          48.500           0.000           0.000           0.000           0.000           0.000           0.000           0.000           0.000           0.000           0.000           0.000           0.000    35620018.793   150719957.122         142.527          47.750           0.000           0.000           0.000           0.000  
C57  31970262.627   166477548.261       -2257.635          45.000           0.000           0.000           0.000           0.000           0.000           0.000           0.000           0.000           0.000           0.000           0.000           0.000    31970384.635   135277160.349       -1834.568          45.250           0.000           0.000           0.000           0.000  
C59  38023236.881   197996972.928           8.990          45.500           0.000           0.000           0.000           0.000           0.000           0.000           0.000           0.000           0.000           0.000           0.000           0.000    38023223.367   160888701.145           7.271          46.250           0.000           0.000           0.000           0.000  
> 2022  6  2  3 32 10.0000000  0 43
G01  20530302.722   107887469.207       -1993.580          47.750           0.000           0.000           0.000           0.000    20530305.133    84068163.521       -1553.461          47.250           0.000           0.000           0.000           0.000           0.000           0.000           0.000           0.000    20530302.756    80565318.495       -1488.696          52.250  
G03  22367656.397   117542825.426        2371.995          43.000           0.000           0.000           0.000           0.000    22367661.240    91591829.162        1848.260          42.250           0.000           0.000           0.000           0.000           0.000           0.000           0.000           0.000    22367659.334    87775497.498        1771.176          48.000  
G06  24300748.854   127701303.562        3504.846          39.000           0.000           0.000           0.000           0.000    24300757.348    99507541.543        2731.023          42.000           0.000           0.000           0.000           0.000           0.000           0.000           0.000           0.000    24300757.607    95361392.074        2617.273          48.250  
G08  24655389.790   129564936.990       -2774.065          38.250           0.000           0.000           0.000           0.000    24655398.649   100959694.213       -2161.587          34.750           0.000           0.000           0.000           0.000           0.000           0.000           0.000           0.000    24655393.018    96753055.746       -2071.490          42.750  
G14  20253883.799   106434876.142         504.451          47.250           0.000           0.000           0.000           0.000    20253883.236    82936266.862         393.096          45.750           0.000           0.000           0.000           0.000           0.000           0.000           0.000           0.000    20253886.299    79480600.003         376.697          55.000  
G17  21464085.488   112794529.680        1373.785          46.000           0.000           0.000           0.000           0.000    21464085.347    87891831.314        1070.466          43.250           0.000           0.000           0.000           0.000           0.000           0.000           0.000           0.000           0.000           0.000           0.000           0.000  
G19  22898150.162   120330595.941        2607.982          42.000           0.000           0.000           0.000           0.000    22898148.901    93764097.964        2032.196          39.000           0.000           0.000           0.000           0.000           0.000           0.000           0.000           0.000           0.000           0.000           0.000           0.000  
G21  23473386.576   123353476.825       -3079.083          42.000           0.000           0.000           0.000           0.000    23473385.831    96119596.397       -2399.289          37.750           0.000           0.000           0.000           0.000           0.000           0.000           0.000           0.000           0.000           0.000           0.000           0.000  
G28  21508768.288   113029338.299        1962.427          46.750           0.000           0.000           0.000           0.000    21508766.360    88074801.778        1529.161          43.000           0.000           0.000           0.000           0.000           0.000           0.000           0.000           0.000           0.000           0.000           0.000           0.000  
G30  23151361.742   121661224.508       -2976.228          40.000           0.000           0.000           0.000           0.000    23151366.796    94800967.867       -2319.111          42.500           0.000           0.000           0.000           0.000           0.000           0.000           0.000           0.000    23151365.929    90850931.865       -2222.559          49.500  
R02  23248610.833   124059047.571        1476.739          40.500           0.000           0.000           0.000           0.000    23248622.305    96490418.259        1148.568          38.750  
R09  21069415.499   112509505.698        2877.055          49.000           0.000           0.000           0.000           0.000    21069416.608    87507394.842        2237.679          48.750  
R15  22368067.778   119528171.926       -4297.558          48.000           0.000           0.000           0.000           0.000    22368075.626    92966388.954       -3342.541          44.750  
R17  22660073.584   121258629.915       -3349.522          46.750           0.000           0.000           0.000           0.000    22660078.770    94312290.380       -2605.243          43.500  
R18  19778744.237   105580279.845       -1527.323          52.750           0.000           0.000           0.000           0.000    19778743.585    82117994.071       -1187.913          49.250  
R19  20264679.083   108402372.541        1395.786          38.500           0.000           0.000           0.000           0.000    20264681.251    84312961.993        1085.578          46.500  
E02  23410993.634   123025610.196         652.131          45.750    23410994.354    91869770.217         487.003          50.750    23410992.855    94266365.883         499.640          51.750  
E11  23768782.955   124905795.641       -2038.200          40.250    23768778.975    93273792.958       -1522.056          43.500    23768777.457    95707015.320       -1561.852          44.750  
E25  24472152.302   128602026.320       -1934.040          44.750    24472154.474    96033989.356       -1444.300          49.250    24472153.082    98539217.839       -1481.981          51.000  
E30  26991354.383   141840524.475        2648.290          37.500    26991356.013   105919876.427        1977.454          43.750    26991353.905   108683000.624        2028.965          45.250  
E34  26251697.250   137953598.021        2392.856          39.000    26251702.776   103017320.550        1786.933          46.500    26251700.256   105704717.791        1833.527          46.500  
E36  23383466.681   122880943.764         299.131          45.250    23383467.797    91761749.147         223.355          50.750    23383466.338    94155528.893         229.221          51.500  
C01  38057479.096   198175280.478          34.630          43.250           0.000           0.000           0.000           0.000    38057478.210   153241692.777          26.687          44.750           0.000           0.000           0.000           0.000    38057480.163   161033653.577          28.114          42.750           0.000           0.000           0.000           0.000  
C02  38427627.246   200102737.518          38.942          38.250           0.000           0.000           0.000           0.000    38427622.257   154732110.627          30.095          45.250           0.000           0.000           0.000           0.000    38427625.636   162599858.408          31.709          41.750           0.000           0.000           0.000           0.000  
C03  37699404.214   196310689.327          67.077          43.750           0.000           0.000           0.000           0.000    37699401.592   151799867.580          51.842          46.250           0.000           0.000           0.000           0.000    37699401.662   159518506.035          54.433          43.500           0.000           0.000           0.000           0.000  
C04  38900631.721   202565791.236          19.896          39.500           0.000           0.000           0.000           0.000    38900627.902   156636709.280          15.269          43.500           0.000           0.000           0.000           0.000    38900628.902   164601290.180          16.072          41.250           0.000           0.000           0.000           0.000  
C05  39949723.275   208028688.401          41.950          35.250           0.000           0.000           0.000           0.000    39949723.197   160860978.070          32.461          39.500           0.000           0.000           0.000           0.000    39949724.176   169040355.530          34.112          39.000           0.000           0.000           0.000           0.000  
C07  35822761.544   186538518.400          70.076          47.250           0.000           0.000           0.000           0.000    35822754.545   144243388.613          54.189          49.250           0.000           0.000           0.000           0.000    35822753.922   151577794.524          56.892          48.000           0.000           0.000           0.000           0.000  
C08  37795806.679   196812680.560        1470.226          41.750           0.000           0.000           0.000           0.000    37795801.931   152188035.725        1136.860          46.500           0.000           0.000           0.000           0.000    37795800.798   159926402.789        1194.633          43.500           0.000           0.000           0.000           0.000  
C10  36064153.751   187795515.713         379.778          46.750           0.000           0.000           0.000           0.000    36064150.428   145215390.663         293.622          48.250           0.000           0.000           0.000           0.000    36064148.787   152599214.637         308.657          46.750           0.000           0.000           0.000           0.000  
C11  23669475.782   123253175.745        1937.936          44.000           0.000           0.000           0.000           0.000    23669474.987    95307168.245        1498.437          48.250           0.000           0.000           0.000           0.000    23669473.134   100153283.314        1574.641          47.000           0.000           0.000           0.000           0.000  
C12  21955396.846   114327508.646        -243.761          48.750           0.000           0.000           0.000           0.000    21955393.494    88405270.211        -188.589          51.750           0.000           0.000           0.000           0.000    21955392.828    92900451.429        -198.132          51.000           0.000           0.000           0.000           0.000  
C13  38803500.632   202060012.693        1454.217          42.250           0.000           0.000           0.000           0.000    38803505.864   156245633.434        1124.548          44.250           0.000           0.000           0.000           0.000    38803502.629   164190320.064        1181.716          43.000           0.000           0.000           0.000           0.000  
C22  25580322.798   133203445.121        1840.203          42.750           0.000           0.000           0.000           0.000           0.000           0.000           0.000           0.000           0.000           0.000           0.000           0.000    25580316.632   108238691.510        1495.320          43.250           0.000           0.000           0.000           0.000  
C24  23387701.496   121785898.036       -2500.486          48.250           0.000           0.000           0.000           0.000           0.000           0.000           0.000           0.000           0.000           0.000           0.000           0.000    23387697.922    98961003.780       -2031.906          50.000           0.000           0.000           0.000           0.000  
C25  23237217.400   121002289.054         635.975          47.750           0.000           0.000           0.000           0.000           0.000           0.000           0.000           0.000           0.000           0.000           0.000           0.000    23237215.248    98324261.171         516.817          49.250           0.000           0.000           0.000           0.000  
C34  22535470.808   117348110.529        1226.387          49.250           0.000           0.000           0.000           0.000           0.000           0.000           0.000           0.000           0.000           0.000           0.000           0.000    22535470.373    95354949.595         996.485          50.000           0.000           0.000           0.000           0.000  
C38  37042442.585   192889721.257        1208.198          47.500           0.000           0.000           0.000           0.000           0.000           0.000           0.000           0.000           0.000           0.000           0.000           0.000    37042439.392   156738683.292         981.770          48.750           0.000           0.000           0.000           0.000  
C40  35881324.828   186843474.818          71.743          49.750           0.000           0.000           0.000           0.000           0.000           0.000           0.000           0.000           0.000           0.000           0.000           0.000    35881321.522   151825613.522          58.271          50.250           0.000           0.000           0.000           0.000  
C44  22051477.474   114827831.949       -1359.113          50.750           0.000           0.000           0.000           0.000           0.000           0.000           0.000           0.000           0.000           0.000           0.000           0.000    22051475.396    93307009.635       -1104.467          51.000           0.000           0.000           0.000           0.000  
C56  35619952.179   185482439.853         175.874          48.250           0.000           0.000           0.000           0.000           0.000           0.000           0.000           0.000           0.000           0.000           0.000           0.000    35619951.344   150719671.729         142.853          47.750           0.000           0.000           0.000           0.000  
C57  31971129.659   166482063.202       -2257.206          44.750           0.000           0.000           0.000           0.000           0.000           0.000           0.000           0.000           0.000           0.000           0.000           0.000    31971251.683   135280829.079       -1834.177          45.250           0.000           0.000           0.000           0.000  
C59  38023233.288   197996954.328           9.661          45.250           0.000           0.000           0.000           0.000           0.000           0.000           0.000           0.000           0.000           0.000           0.000           0.000    38023219.798   160888686.030           7.849          46.250           0.000           0.000           0.000           0.000  
> 2022  6  2  3 32 12.0000000  0 43
G01  20531061.697   107891457.658       -1994.818          47.750           0.000           0.000           0.000           0.000    20531064.182    84071271.410       -1554.337          46.750           0.000           0.000           0.000           0.000           0.000           0.000           0.000           0.000    20531061.729    80568296.896       -1489.636          52.250  
G03  22366753.917   117538082.799        2370.933          43.000           0.000           0.000           0.000           0.000    22366758.712    91588133.623        1847.300          42.000           0.000           0.000           0.000           0.000           0.000           0.000           0.000           0.000    22366756.825    87771955.921        1770.421          47.750  
G06  24299415.020   127694294.307        3504.474          39.250           0.000           0.000           0.000           0.000    24299423.680    99502079.802        2730.744          41.750           0.000           0.000           0.000           0.000           0.000           0.000           0.000           0.000    24299423.812    95356157.924        2616.928          48.000  
G08  24656445.713   129570485.481       -2774.270          38.500           0.000           0.000           0.000           0.000    24656454.207   100964017.670       -2161.522          34.000           0.000           0.000           0.000           0.000           0.000           0.000           0.000           0.000    24656448.830    96757199.105       -2071.787          42.750  
G14  20253692.064   106433868.663         503.110          47.250           0.000           0.000           0.000           0.000    20253691.518    82935481.804         392.072          45.750           0.000           0.000           0.000           0.000           0.000           0.000           0.000           0.000    20253694.582    79479847.671         375.672          55.000  
G17  21463562.765   112791782.774        1373.235          45.750           0.000           0.000           0.000           0.000    21463562.617    87889690.859        1070.093          43.000           0.000           0.000           0.000           0.000           0.000           0.000           0.000           0.000           0.000           0.000           0.000           0.000  
G19  22897157.739   120325380.564        2607.508          42.250           0.000           0.000           0.000           0.000    22897156.444    93760034.035        2031.823          39.000           0.000           0.000           0.000           0.000           0.000           0.000           0.000           0.000           0.000           0.000           0.000           0.000  
G21  23474558.607   123359635.681       -3079.502          42.000           0.000           0.000           0.000           0.000    23474557.863    96124395.507       -2399.615          37.750           0.000           0.000           0.000           0.000           0.000           0.000           0.000           0.000           0.000           0.000           0.000           0.000  
G28  21508021.605   113025414.314        1961.682          46.750           0.000           0.000           0.000           0.000    21508019.674    88071744.116        1528.583          43.000           0.000           0.000           0.000           0.000           0.000           0.000           0.000           0.000           0.000           0.000           0.000           0.000  
G30  23152494.527   121667177.987       -2976.982          39.750           0.000           0.000           0.000           0.000    23152499.717    94805606.936       -2319.809          42.500           0.000           0.000           0.000           0.000           0.000           0.000           0.000           0.000    23152498.860    90855377.626       -2223.099          49.250  
R02  23248057.700   124056095.826        1475.127          40.250           0.000           0.000           0.000           0.000    23248068.831    96488122.404        1147.330          37.750  
R09  21068338.317   112503753.245        2875.621          48.750           0.000           0.000           0.000           0.000    21068339.327    87502920.722        2236.506          48.500  
R15  22369676.464   119536767.983       -4298.285          48.000           0.000           0.000           0.000           0.000    22369684.247    92973074.752       -3343.053          44.500  
R17  22661325.492   121265329.396       -3349.792          46.500           0.000           0.000           0.000           0.000    22661330.674    94317501.072       -2605.336          43.000  
R18  19779316.771   105583335.675       -1528.328          52.500           0.000           0.000           0.000           0.000    19779315.986    82120370.830       -1188.667          49.000  
R19  20264157.537   108399582.400        1394.510          38.500           0.000           0.000           0.000           0.000    20264159.729    84310791.885        1084.609          45.750  
E02  23410745.672   123024307.083         651.060          45.750    23410746.381    91868797.115         486.174          50.750    23410744.877    94265367.385         498.905          51.500  
E11  23769558.809   124909873.030       -2038.917          40.500    23769554.887    93276837.769       -1522.661          43.500    23769553.351    95710139.529       -1562.271          44.750  
E25  24472888.535   128605895.443       -1934.879          44.750    24472890.747    96036878.631       -1444.914          49.000    24472889.351    98542182.483       -1482.615          51.000  
E30  26990346.576   141835228.906        2647.731          37.500    26990348.266   105915921.929        1977.175          43.750    26990346.197   108678942.964        2028.686          45.500  
E34  26250786.702   137948812.873        2392.298          39.000    26250792.159   103013747.243        1786.449          46.500    26250789.659   105701051.255        1833.089          46.500  
E36  23383353.107   122880346.409         298.275          45.250    23383354.128    91761303.071         222.712          50.500    23383352.658    94155071.179         228.495          51.250  
C01  38057465.886   198175211.632          34.434          43.500           0.000           0.000           0.000           0.000    38057464.979   153241639.536          26.584          44.750           0.000           0.000           0.000           0.000    38057466.956   161033597.635          27.956          42.500           0.000           0.000           0.000           0.000  
C02  38427612.332   200102659.914          38.895          38.500           0.000           0.000           0.000           0.000    38427607.382   154732050.626          29.956          45.250           0.000           0.000           0.000           0.000    38427610.753   162599795.389          31.430          41.750           0.000           0.000           0.000           0.000  
C03  37699378.552   196310555.567          66.928          43.750           0.000           0.000           0.000           0.000    37699375.890   151799764.150          51.711          46.500           0.000           0.000           0.000           0.000    37699375.986   159518397.345          54.294          43.250           0.000           0.000           0.000           0.000  
C04  38900624.163   202565751.904          19.607          39.500           0.000           0.000           0.000           0.000    38900620.337   156636678.843          15.176          43.500           0.000           0.000           0.000           0.000    38900621.364   164601258.214          15.886          41.000           0.000           0.000           0.000           0.000  
C05  39949707.346   208028604.878          41.559          35.250           0.000           0.000           0.000           0.000    39949707.126   160860913.470          32.293          39.750           0.000           0.000           0.000           0.000    39949708.133   169040287.666          33.870          39.000           0.000           0.000           0.000           0.000  
C07  35822734.684   186538378.588          69.852          47.500           0.000           0.000           0.000           0.000    35822727.658   144243280.484          53.974          49.250           0.000           0.000           0.000           0.000    35822727.074   151577680.920          56.659          48.000           0.000           0.000           0.000           0.000  
C08  37795242.109   196809740.571        1469.733          42.000           0.000           0.000           0.000           0.000    37795237.419   152185762.331        1136.600          46.500           0.000           0.000           0.000           0.000    37795236.186   159924013.792        1194.447          43.250           0.000           0.000           0.000           0.000  
C10  36064007.961   187794756.466         379.582          47.000           0.000           0.000           0.000           0.000    36064004.616   145214803.555         293.473          48.250           0.000           0.000           0.000           0.000    36064002.983   152598597.705         308.368          46.500           0.000           0.000           0.000           0.000  
C11  23668731.660   123249300.776        1937.135          44.250           0.000           0.000           0.000           0.000    23668730.855    95304171.868        1498.009          48.250           0.000           0.000           0.000           0.000    23668729.001   100150134.586        1574.147          46.750           0.000           0.000           0.000           0.000  
C12  21955490.695   114327997.172        -244.627          49.000           0.000           0.000           0.000           0.000    21955487.297    88405647.946        -189.063          51.750           0.000           0.000           0.000           0.000    21955486.638    92900848.392        -198.756          50.750           0.000           0.000           0.000           0.000  
C13  38802942.173   202057104.641        1453.872          42.250           0.000           0.000           0.000           0.000    38802947.423   156243384.739        1124.278          44.250           0.000           0.000           0.000           0.000    38802944.148   164187957.034        1181.399          43.000           0.000           0.000           0.000           0.000  
C22  25579616.183   133199765.720        1839.365          42.750           0.000           0.000           0.000           0.000           0.000           0.000           0.000           0.000           0.000           0.000           0.000           0.000    25579610.064   108235701.722        1494.538          43.000           0.000           0.000           0.000           0.000  
C24  23388662.069   121790900.118       -2501.483          48.500           0.000           0.000           0.000           0.000           0.000           0.000           0.000           0.000           0.000           0.000           0.000           0.000    23388658.550    98965068.375       -2032.632          49.750           0.000           0.000           0.000           0.000  
C25  23236973.414   121001018.569         634.681          47.750           0.000           0.000           0.000           0.000           0.000           0.000           0.000           0.000           0.000           0.000           0.000           0.000    23236971.271    98323228.809         515.690          49.000           0.000           0.000           0.000           0.000  
C34  22534999.932   117345658.547        1225.679          49.500           0.000           0.000           0.000           0.000           0.000           0.000           0.000           0.000           0.000           0.000           0.000           0.000    22534999.521    95352957.163         995.991          50.000           0.000           0.000           0.000           0.000  
C38  37041978.649   192887305.495        1207.761          47.500           0.000           0.000           0.000           0.000           0.000           0.000           0.000           0.000           0.000           0.000           0.000           0.000    37041975.484   156736720.305         981.323          48.750           0.000           0.000           0.000           0.000  
C40  35881297.395   186843331.869          71.352          49.750           0.000           0.000           0.000           0.000           0.000           0.000           0.000           0.000           0.000           0.000           0.000           0.000    35881294.073   151825497.370          57.973          50.250           0.000           0.000           0.000           0.000  
C44  22051999.613   114830550.863       -1359.719          51.000           0.000           0.000           0.000           0.000           0.000           0.000           0.000           0.000           0.000           0.000           0.000           0.000    22051997.541    93309218.974       -1104.914          50.750           0.000           0.000           0.000           0.000  
C56  35619884.740   185482088.659         175.464          48.500           0.000           0.000           0.000           0.000           0.000           0.000           0.000           0.000           0.000           0.000           0.000           0.000    35619883.905   150719386.363         142.602          47.750           0.000           0.000           0.000           0.000  
C57  31971996.693   166486578.118       -2257.570          45.000           0.000           0.000           0.000           0.000           0.000           0.000           0.000           0.000           0.000           0.000           0.000           0.000    31972118.728   135284497.832       -1834.503          45.250           0.000           0.000           0.000           0.000  
C59  38023229.654   197996935.424           9.409          45.500           0.000           0.000           0.000           0.000           0.000           0.000           0.000           0.000           0.000           0.000           0.000           0.000    38023216.166   160888670.671           7.625          46.250           0.000           0.000           0.000           0.000  
> 2022  6  2  3 32 14.0000000  0 43
G01  20531821.083   107895448.331       -1996.281          47.750           0.000           0.000           0.000           0.000    20531823.659    84074381.017       -1555.566          46.750           0.000           0.000           0.000           0.000           0.000           0.000           0.000           0.000    20531821.123    80571276.935       -1490.735          52.250  
G03  22365851.838   117533342.224        2369.480          43.500           0.000           0.000           0.000           0.000    22365856.584    91584439.641        1846.471          42.500           0.000           0.000           0.000           0.000           0.000           0.000           0.000           0.000    22365854.696    87768415.864        1769.397          48.000  
G06  24298081.373   127687285.954        3503.663          39.500           0.000           0.000           0.000           0.000    24298090.115    99496618.772        2729.989          41.500           0.000           0.000           0.000           0.000           0.000           0.000           0.000           0.000    24298090.197    95350924.433        2616.351          48.250  
G08  24657501.690   129576034.275       -2774.848          38.750           0.000           0.000           0.000           0.000    24657509.743   100968341.370       -2161.932          34.750           0.000           0.000           0.000           0.000           0.000           0.000           0.000           0.000    24657504.696    96761342.660       -2072.067          42.750  
G14  20253500.786   106432863.597         501.601          47.250           0.000           0.000           0.000           0.000    20253500.264    82934698.654         390.861          45.750           0.000           0.000           0.000           0.000           0.000           0.000           0.000           0.000    20253503.322    79479097.131         374.573          55.000  
G17  21463040.214   112789036.734        1372.499          46.000           0.000           0.000           0.000           0.000    21463040.058    87887551.073        1069.553          42.500           0.000           0.000           0.000           0.000           0.000           0.000           0.000           0.000           0.000           0.000           0.000           0.000  
G19  22896165.464   120320165.891        2606.874          42.750           0.000           0.000           0.000           0.000    22896164.133    93755970.665        2031.330          39.500           0.000           0.000           0.000           0.000           0.000           0.000           0.000           0.000           0.000           0.000           0.000           0.000  
G21  23475730.739   123365795.060       -3080.182          42.250           0.000           0.000           0.000           0.000    23475730.009    96129195.019       -2400.145          38.000           0.000           0.000           0.000           0.000           0.000           0.000           0.000           0.000           0.000           0.000           0.000           0.000  
G28  21507275.187   113021491.745        1960.574          47.000           0.000           0.000           0.000           0.000    21507273.247    88068687.583        1527.717          43.000           0.000           0.000           0.000           0.000           0.000           0.000           0.000           0.000           0.000           0.000           0.000           0.000  
G30  23153627.524   121673132.613       -2978.146          39.750           0.000           0.000           0.000           0.000    23153632.846    94810246.883       -2320.406          42.250           0.000           0.000           0.000           0.000           0.000           0.000           0.000           0.000    23153632.008    90859824.239       -2223.770          49.500  
R02  23247505.126   124053146.962        1473.442          39.750           0.000           0.000           0.000           0.000    23247515.799    96485828.901        1146.007          38.250  
R09  21067261.585   112498003.436        2873.963          49.000           0.000           0.000           0.000           0.000    21067262.567    87498448.632        2235.314          47.250  
R15  22371285.372   119545365.259       -4299.318          47.750           0.000           0.000           0.000           0.000    22371293.090    92979761.505       -3343.798          44.000  
R17  22662577.477   121272029.094       -3350.267          47.000           0.000           0.000           0.000           0.000    22662582.612    94322711.936       -2605.652          43.000  
R18  19779889.571   105586393.075       -1529.446          52.250           0.000           0.000           0.000           0.000    19779888.699    82122748.801       -1189.487          49.000  
R19  20263636.403   108396794.335        1393.141          38.500           0.000           0.000           0.000           0.000    20263638.573    84308623.389        1083.612          45.750  
E02  23410498.039   123023005.700         649.933          46.000    23410498.733    91867825.299         485.317          51.000    23410497.229    94264370.223         497.983          51.750  
E11  23770334.808   124913951.267       -2039.643          40.750    23770330.950    93279883.197       -1523.192          43.500    23770329.415    95713264.421       -1562.876          44.750  
E25  24473625.059   128609766.069       -1935.987          45.000    24473627.301    96039769.029       -1445.752          49.250    24473625.905    98545148.285       -1483.453          51.000  
E30  26989338.891   141829933.976        2647.070          37.500    26989340.650   105911967.916        1976.644          42.750    26989338.622   108674885.799        2028.173          44.750  
E34  26249876.384   137944028.737        2391.525          39.250    26249881.734   103010174.697        1785.844          46.500    26249879.255   105697385.532        1832.298          46.500  
E36  23383239.806   122879750.630         297.148          45.250    23383240.761    91760858.180         221.874          50.750    23383239.281    94154614.683         227.685          51.500  
C01  38057452.703   198175142.955          33.931          43.500           0.000           0.000           0.000           0.000    38057451.783   153241586.434          26.137          44.750           0.000           0.000           0.000           0.000    38057453.769   161033541.823          27.621          42.500           0.000           0.000           0.000           0.000  
C02  38427597.444   200102582.522          38.299          38.250           0.000           0.000           0.000           0.000    38427592.530   154731990.777          29.620          45.000           0.000           0.000           0.000           0.000    38427595.892   162599732.475          31.132          41.500           0.000           0.000           0.000           0.000  
C03  37699352.928   196310421.977          66.444          43.750           0.000           0.000           0.000           0.000    37699350.227   151799660.856          51.274          46.500           0.000           0.000           0.000           0.000    37699350.348   159518288.803          53.884          43.250           0.000           0.000           0.000           0.000  
C04  38900616.621   202565712.737          19.151          40.000           0.000           0.000           0.000           0.000    38900612.820   156636648.556          14.784          43.250           0.000           0.000           0.000           0.000    38900613.842   164601226.365          15.672          41.250           0.000           0.000           0.000           0.000  
C05  39949691.427   208028521.512          41.233          36.000           0.000           0.000           0.000           0.000    39949691.095   160860848.995          32.033          39.750           0.000           0.000           0.000           0.000    39949692.137   169040219.923          33.479          39.250           0.000           0.000           0.000           0.000  
C07  35822707.905   186538239.128          69.312          47.250           0.000           0.000           0.000           0.000    35822700.849   144243172.659          53.565          48.750           0.000           0.000           0.000           0.000    35822700.285   151577567.572          56.352          47.500           0.000           0.000           0.000           0.000  
C08  37794677.673   196806801.304        1469.155          42.000           0.000           0.000           0.000           0.000    37794673.056   152183489.544        1135.864          46.250           0.000           0.000           0.000           0.000    37794671.716   159921625.408        1193.748          43.250           0.000           0.000           0.000           0.000  
C10  36063862.226   187793997.536         379.117          47.000           0.000           0.000           0.000           0.000    36063858.868   145214216.709         293.119          48.250           0.000           0.000           0.000           0.000    36063857.235   152597981.014         308.033          46.500           0.000           0.000           0.000           0.000  
C11  23667987.735   123245426.787        1936.474          44.250           0.000           0.000           0.000           0.000    23667986.925    95301176.280        1497.320          48.250           0.000           0.000           0.000           0.000    23667985.051   100146986.652        1573.579          46.750           0.000           0.000           0.000           0.000  
C12  21955584.759   114328486.846        -245.400          49.250           0.000           0.000           0.000           0.000    21955581.327    88406026.620        -189.864          51.750           0.000           0.000           0.000           0.000    21955580.674    92901246.301        -199.436          50.500           0.000           0.000           0.000           0.000  
C13  38802383.843   202054197.192        1453.211          42.500           0.000           0.000           0.000           0.000    38802389.091   156241136.515        1123.841          44.000           0.000           0.000           0.000           0.000    38802385.778   164185594.507        1180.784          42.750           0.000           0.000           0.000           0.000  
C22  25578909.842   133196087.856        1838.341          42.750           0.000           0.000           0.000           0.000           0.000           0.000           0.000           0.000           0.000           0.000           0.000           0.000    25578903.789   108232713.167        1493.578          43.000           0.000           0.000           0.000           0.000  
C24  23389622.946   121795903.785       -2502.526          48.250           0.000           0.000           0.000           0.000           0.000           0.000           0.000           0.000           0.000           0.000           0.000           0.000    23389619.479    98969134.268       -2033.508          49.750           0.000           0.000           0.000           0.000  
C25  23236729.880   120999750.441         633.191          47.250           0.000           0.000           0.000           0.000           0.000           0.000           0.000           0.000           0.000           0.000           0.000           0.000    23236727.738    98322198.348         514.470          48.500           0.000           0.000           0.000           0.000  
C34  22534529.289   117343207.708        1224.906          49.750           0.000           0.000           0.000           0.000           0.000           0.000           0.000           0.000           0.000           0.000           0.000           0.000    22534528.890    95350965.654         995.284          50.250           0.000           0.000           0.000           0.000  
C38  37041514.849   192884890.469        1207.025          47.750           0.000           0.000           0.000           0.000           0.000           0.000           0.000           0.000           0.000           0.000           0.000           0.000    37041511.712   156734757.894         980.801          48.750           0.000           0.000           0.000           0.000  
C40  35881270.031   186843189.243          70.923          50.000           0.000           0.000           0.000           0.000           0.000           0.000           0.000           0.000           0.000           0.000           0.000           0.000    35881266.681   151825381.468          57.647          49.750           0.000           0.000           0.000           0.000  
C44  22052521.934   114833270.692       -1360.408          51.000           0.000           0.000           0.000           0.000           0.000           0.000           0.000           0.000           0.000           0.000           0.000           0.000    22052519.860    93311429.066       -1105.510          50.500           0.000           0.000           0.000           0.000  
C56  35619817.398   185481737.960         174.896          48.500           0.000           0.000           0.000           0.000           0.000           0.000           0.000           0.000           0.000           0.000           0.000           0.000    35619816.556   150719101.383         142.183          47.250           0.000           0.000           0.000           0.000  
C57  31972863.838   166491093.521       -2258.175          45.250           0.000           0.000           0.000           0.000           0.000           0.000           0.000           0.000           0.000           0.000           0.000           0.000    31972985.860   135288166.960       -1834.913          45.250           0.000           0.000           0.000           0.000  
C59  38023226.056   197996916.682           8.934          45.750           0.000           0.000           0.000           0.000           0.000           0.000           0.000           0.000           0.000           0.000           0.000           0.000    38023212.569   160888655.431           7.290          46.250           0.000           0.000           0.000           0.000  
> 2022  6  2  3 32 16.0000000  0 43
G01  20532580.936   107899441.432       -1997.026          48.000           0.000           0.000           0.000           0.000    20532583.579    84077492.522       -1556.060          46.750           0.000           0.000           0.000           0.000           0.000           0.000           0.000           0.000    20532580.983    80574258.799       -1491.313          52.250  
G03  22364950.187   117528603.924        2368.744          43.750           0.000           0.000           0.000           0.000    22364954.883    91580747.458        1845.894          42.500           0.000           0.000           0.000           0.000           0.000           0.000           0.000           0.000    22364953.013    87764877.528        1768.847          48.000  
G06  24296747.959   127680278.715        3503.598          39.500           0.000           0.000           0.000           0.000    24296756.717    99491158.587        2730.036          41.250           0.000           0.000           0.000           0.000           0.000           0.000           0.000           0.000    24296756.788    95345691.772        2616.211          48.000  
G08  24658557.773   129581583.627       -2774.699          39.250           0.000           0.000           0.000           0.000    24658565.433   100972665.570       -2161.969          35.250           0.000           0.000           0.000           0.000           0.000           0.000           0.000           0.000    24658560.696    96765486.654       -2072.020          42.750  
G14  20253310.011   106431861.176         500.679          47.250           0.000           0.000           0.000           0.000    20253309.510    82933917.542         390.144          45.500           0.000           0.000           0.000           0.000           0.000           0.000           0.000           0.000    20253312.568    79478348.574         373.894          55.000  
G17  21462517.887   112786291.855        1372.276          46.000           0.000           0.000           0.000           0.000    21462517.717    87885412.217        1069.348          42.500           0.000           0.000           0.000           0.000           0.000           0.000           0.000           0.000           0.000           0.000           0.000           0.000  
G19  22895173.368   120314952.148        2606.902          43.000           0.000           0.000           0.000           0.000    22895172.001    93751908.024        2031.348          39.750           0.000           0.000           0.000           0.000           0.000           0.000           0.000           0.000           0.000           0.000           0.000           0.000  
G21  23476903.004   123371955.206       -3080.173          42.250           0.000           0.000           0.000           0.000    23476902.296    96133995.125       -2400.136          37.750           0.000           0.000           0.000           0.000           0.000           0.000           0.000           0.000           0.000           0.000           0.000           0.000  
G28  21506529.078   113017570.836        1960.210          47.250           0.000           0.000           0.000           0.000    21506527.136    88065632.328        1527.438          43.000           0.000           0.000           0.000           0.000           0.000           0.000           0.000           0.000           0.000           0.000           0.000           0.000  
G30  23154760.793   121679088.606       -2978.146          40.000           0.000           0.000           0.000           0.000    23154766.220    94814887.909       -2320.648          42.500           0.000           0.000           0.000           0.000           0.000           0.000           0.000           0.000    23154765.425    90864271.891       -2223.984          49.500  
R02  23246953.108   124050201.325        1472.147          39.500           0.000           0.000           0.000           0.000    23246963.357    96483537.844        1145.132          38.000  
R09  21066185.384   112492256.541        2872.948          49.250           0.000           0.000           0.000           0.000    21066186.337    87493978.841        2234.438          47.000  
R15  22372894.574   119553964.085       -4299.626          48.000           0.000           0.000           0.000           0.000    22372902.224    92986449.475       -3344.161          44.000  
R17  22663829.543   121278729.164       -3349.988          46.500           0.000           0.000           0.000           0.000    22663834.551    94327923.113       -2605.503          42.750  
R18  19780462.726   105589452.446       -1530.014          52.500           0.000           0.000           0.000           0.000    19780461.768    82125128.306       -1190.027          48.500  
R19  20263115.671   108394008.644        1392.452          38.500           0.000           0.000           0.000           0.000    20263117.864    84306456.733        1083.026          45.500  
E02  23410250.776   123021706.293         649.402          46.000    23410251.460    91866854.956         484.935          51.000    23410249.957    94263374.570         497.526          51.750  
E11  23771111.019   124918030.599       -2039.578          40.500    23771107.222    93282929.447       -1523.108          43.250    23771105.685    95716390.152       -1562.857          44.500  
E25  24474361.918   128613638.435       -1936.397          45.250    24474364.180    96042660.729       -1446.041          49.000    24474362.787    98548115.424       -1483.816          51.000  
E30  26988331.399   141824639.935        2646.968          37.500    26988333.212   105908014.582        1976.569          42.500    26988331.230   108670829.315        2028.229          44.750  
E34  26248966.335   137939245.907        2391.217          39.250    26248971.556   103006603.106        1785.704          46.500    26248969.086   105693720.743        1832.260          46.500  
E36  23383126.821   122879156.670         296.635          45.250    23383127.735    91760414.636         221.566          50.500    23383126.253    94154159.572         227.294          51.250  
C01  38057439.600   198175074.706          34.238          43.500           0.000           0.000           0.000           0.000    38057438.671   153241533.652          26.454          44.500           0.000           0.000           0.000           0.000    38057440.663   161033486.378          27.835          42.250           0.000           0.000           0.000           0.000  
C02  38427582.644   200102505.520          38.597          38.250           0.000           0.000           0.000           0.000    38427577.743   154731931.242          29.760          44.750           0.000           0.000           0.000           0.000    38427581.121   162599669.910          31.346          41.250           0.000           0.000           0.000           0.000  
C03  37699327.395   196310288.814          66.667          43.250           0.000           0.000           0.000           0.000    37699324.630   151799557.876          51.553          46.500           0.000           0.000           0.000           0.000    37699324.790   159518180.579          54.210          43.000           0.000           0.000           0.000           0.000  
C04  38900609.153   202565673.975          19.607          39.750           0.000           0.000           0.000           0.000    38900605.374   156636618.595          14.943          43.500           0.000           0.000           0.000           0.000    38900606.402   164601194.892          15.802          41.250           0.000           0.000           0.000           0.000  
C05  39949675.550   208028438.551          41.382          35.750           0.000           0.000           0.000           0.000    39949675.130   160860784.856          32.098          39.750           0.000           0.000           0.000           0.000    39949676.209   169040152.501          33.749          39.000           0.000           0.000           0.000           0.000  
C07  35822681.253   186538100.327          69.359          47.000           0.000           0.000           0.000           0.000    35822674.160   144243065.329          53.649          48.750           0.000           0.000           0.000           0.000    35822673.627   151577454.781          56.445          47.250           0.000           0.000           0.000           0.000  
C08  37794113.407   196803862.998        1469.099          41.750           0.000           0.000           0.000           0.000    37794108.861   152181217.447        1135.985          46.500           0.000           0.000           0.000           0.000    37794107.440   159919237.800        1193.758          43.000           0.000           0.000           0.000           0.000  
C10  36063716.596   187793239.141         379.182          46.750           0.000           0.000           0.000           0.000    36063713.221   145213630.265         293.213          48.250           0.000           0.000           0.000           0.000    36063711.588   152597364.733         308.210          46.250           0.000           0.000           0.000           0.000  
C11  23667244.036   123241554.020        1936.176          44.000           0.000           0.000           0.000           0.000    23667243.213    95298181.595        1497.282          48.500           0.000           0.000           0.000           0.000    23667241.341   100143839.724        1573.337          46.500           0.000           0.000           0.000           0.000  
C12  21955679.091   114328977.976        -245.726          48.750           0.000           0.000           0.000           0.000    21955675.628    88406406.387        -190.032          51.750           0.000           0.000           0.000           0.000    21955674.988    92901645.389        -199.678          50.250           0.000           0.000           0.000           0.000  
C13  38801825.665   202051290.526        1453.406          42.500           0.000           0.000           0.000           0.000    38801830.918   156238888.935        1123.831          44.000           0.000           0.000           0.000           0.000    38801827.576   164183232.623        1180.980          42.750           0.000           0.000           0.000           0.000  
C22  25578203.845   133192411.838        1837.661          42.750           0.000           0.000           0.000           0.000           0.000           0.000           0.000           0.000           0.000           0.000           0.000           0.000    25578197.863   108229726.088        1493.252          43.000           0.000           0.000           0.000           0.000  
C24  23390584.187   121800909.315       -2503.038          48.250           0.000           0.000           0.000           0.000           0.000           0.000           0.000           0.000           0.000           0.000           0.000           0.000    23390580.753    98973201.660       -2033.927          49.500           0.000           0.000           0.000           0.000  
C25  23236486.848   120998484.932         632.334          47.000           0.000           0.000           0.000           0.000           0.000           0.000           0.000           0.000           0.000           0.000           0.000           0.000    23236484.712    98321170.033         513.687          48.000           0.000           0.000           0.000           0.000  
C34  22534058.931   117340758.302        1224.562          49.500           0.000           0.000           0.000           0.000           0.000           0.000           0.000           0.000           0.000           0.000           0.000           0.000    22534058.534    95348975.320         995.004          50.000           0.000           0.000           0.000           0.000  
C38  37041051.233   192882476.417        1206.988          47.500           0.000           0.000           0.000           0.000           0.000           0.000           0.000           0.000           0.000           0.000           0.000           0.000    37041048.126   156732796.283         980.783          48.500           0.000           0.000           0.000           0.000  
C40  35881242.776   186843047.210          71.054          49.750           0.000           0.000           0.000           0.000           0.000           0.000           0.000           0.000           0.000           0.000           0.000           0.000    35881239.406   151825266.067          57.712          49.500           0.000           0.000           0.000           0.000  
C44  22053044.502   114835991.723       -1360.594          51.000           0.000           0.000           0.000           0.000           0.000           0.000           0.000           0.000           0.000           0.000           0.000           0.000    22053042.404    93313640.121       -1105.622          50.500           0.000           0.000           0.000           0.000  
C56  35619750.193   185481387.993         174.887          48.250           0.000           0.000           0.000           0.000           0.000           0.000           0.000           0.000           0.000           0.000           0.000           0.000    35619749.353   150718817.017         142.108          47.000           0.000           0.000           0.000           0.000  
C57  31973731.121   166495609.615       -2258.007          45.000           0.000           0.000           0.000           0.000           0.000           0.000           0.000           0.000           0.000           0.000           0.000           0.000    31973853.134   135291836.661       -1834.894          45.000           0.000           0.000           0.000           0.000  
C59  38023222.543   197996898.348           9.232          45.500           0.000           0.000           0.000           0.000           0.000           0.000           0.000           0.000           0.000           0.000           0.000           0.000    38023209.052   160888640.542           7.513          45.750           0.000           0.000           0.000           0.000  
> 2022  6  2  3 32 18.0000000  0 43
G01  20533341.274   107903437.085       -1998.358          48.250           0.000           0.000           0.000           0.000    20533343.959    84080606.029       -1557.159          46.500           0.000           0.000           0.000           0.000           0.000           0.000           0.000           0.000    20533341.332    80577242.564       -1492.300          52.500  
G03  22364048.989   117523868.018        2367.413          43.750           0.000           0.000           0.000           0.000    22364053.608    91577057.164        1844.702          42.250           0.000           0.000           0.000           0.000           0.000           0.000           0.000           0.000    22364051.782    87761340.970        1767.851          48.000  
G06  24295414.769   127673272.663        3502.928          39.750           0.000           0.000           0.000           0.000    24295423.532    99485699.373        2729.393          41.500           0.000           0.000           0.000           0.000           0.000           0.000           0.000           0.000    24295423.603    95340460.016        2615.662          48.250  
G08  24659613.994   129587133.639       -2775.118          39.500           0.000           0.000           0.000           0.000    24659621.296   100976990.285       -2162.612          35.250           0.000           0.000           0.000           0.000           0.000           0.000           0.000           0.000    24659616.818    96769631.106       -2072.169          43.000  
G14  20253119.759   106430861.526         499.235          47.250           0.000           0.000           0.000           0.000    20253119.285    82933138.596         389.017          45.500           0.000           0.000           0.000           0.000           0.000           0.000           0.000           0.000    20253122.337    79477602.074         372.841          55.250  
G17  21461995.791   112783548.201        1371.680          46.000           0.000           0.000           0.000           0.000    21461995.589    87883274.331        1068.715          42.250           0.000           0.000           0.000           0.000           0.000           0.000           0.000           0.000           0.000           0.000           0.000           0.000  
G19  22894181.470   120309739.491        2606.157          43.000           0.000           0.000           0.000           0.000    22894180.050    93747846.199        2030.771          39.750           0.000           0.000           0.000           0.000           0.000           0.000           0.000           0.000           0.000           0.000           0.000           0.000  
G21  23478075.422   123378116.171       -3080.676          42.250           0.000           0.000           0.000           0.000    23478074.707    96138795.882       -2400.527          37.750           0.000           0.000           0.000           0.000           0.000           0.000           0.000           0.000           0.000           0.000           0.000           0.000  
G28  21505783.293   113013651.715        1959.223          47.250           0.000           0.000           0.000           0.000    21505781.350    88062578.466        1526.665          43.000           0.000           0.000           0.000           0.000           0.000           0.000           0.000           0.000           0.000           0.000           0.000           0.000  
G30  23155894.397   121685046.096       -2979.003          40.500           0.000           0.000           0.000           0.000    23155899.881    94819530.108       -2321.271          42.500           0.000           0.000           0.000           0.000           0.000           0.000           0.000           0.000    23155899.126    90868720.654       -2224.543          49.500  
R02  23246401.715   124047258.948        1470.489          40.750           0.000           0.000           0.000           0.000    23246411.660    96481249.351        1143.511          39.000  
R09  21065109.758   112486512.653        2871.281          49.250           0.000           0.000           0.000           0.000    21065110.660    87489511.358        2233.256          47.000  
R15  22374504.094   119562564.509       -4300.501          47.750           0.000           0.000           0.000           0.000    22374511.650    92993138.658       -3344.776          43.750  
R17  22665081.697   121285429.664       -3350.258          46.250           0.000           0.000           0.000           0.000    22665086.578    94333134.612       -2605.755          42.500  
R18  19781036.265   105592513.917       -1531.113          52.250           0.000           0.000           0.000           0.000    19781035.203    82127509.443       -1190.791          48.500  
R19  20262595.420   108391225.402        1391.185          38.250           0.000           0.000           0.000           0.000    20262597.621    84304292.007        1081.945          45.500  
E02  23410003.904   123020408.952         648.266          46.250    23410004.583    91865886.169         484.125          50.750    23410003.085    94262380.518         496.679          51.750  
E11  23771887.490   124922111.190       -2040.435          40.750    23771883.725    93285976.643       -1523.751          43.000    23771882.184    95719516.818       -1563.444          44.750  
E25  24475099.136   128617512.661       -1937.440          45.250    24475101.410    96045553.820       -1446.851          49.000    24475100.023    98551083.990       -1484.617          51.000  
E30  26987324.108   141819346.890        2646.279          38.000    26987325.964   105904061.981        1976.206          42.500    26987324.027   108666773.619        2027.717          44.750  
E34  26248056.552   137934464.431        2390.537          39.500    26248061.645   103003032.536        1785.099          46.250    26248059.199   105690057.042        1831.590          46.500  
E36  23383014.177   122878564.637         295.592          45.250    23383015.073    91759972.530         220.784          50.500    23383013.592    94153705.941         226.502          51.500  
C01  38057426.603   198175007.009          33.829          43.250           0.000           0.000           0.000           0.000    38057425.671   153241481.302          26.137          44.750           0.000           0.000           0.000           0.000    38057427.663   161033431.360          27.528          42.250           0.000           0.000           0.000           0.000  
C02  38427567.947   200102429.041          38.308          38.000           0.000           0.000           0.000           0.000    38427563.047   154731872.098          29.667          44.750           0.000           0.000           0.000           0.000    38427566.433   162599607.770          31.001          41.250           0.000           0.000           0.000           0.000  
C03  37699301.951   196310156.166          66.378          43.250           0.000           0.000           0.000           0.000    37699299.146   151799455.319          51.227          46.500           0.000           0.000           0.000           0.000    37699299.323   159518072.817          53.819          43.000           0.000           0.000           0.000           0.000  
C04  38900601.804   202565635.794          19.086          39.750           0.000           0.000           0.000           0.000    38900598.042   156636589.070          14.691          43.750           0.000           0.000           0.000           0.000    38900599.063   164601163.865          15.420          41.500           0.000           0.000           0.000           0.000  
C05  39949659.760   208028356.102          41.270          35.500           0.000           0.000           0.000           0.000    39949659.266   160860721.137          31.716          39.750           0.000           0.000           0.000           0.000    39949660.389   169040085.530          33.358          39.000           0.000           0.000           0.000           0.000  
C07  35822654.739   186537962.258          68.967          46.750           0.000           0.000           0.000           0.000    35822647.616   144242958.571          53.323          48.750           0.000           0.000           0.000           0.000    35822647.115   151577342.600          56.045          47.250           0.000           0.000           0.000           0.000  
C08  37793549.317   196800925.703        1468.373          41.500           0.000           0.000           0.000           0.000    37793544.855   152178946.135        1135.510          46.500           0.000           0.000           0.000           0.000    37793543.363   159916850.996        1193.311          43.250           0.000           0.000           0.000           0.000  
C10  36063571.087   187792481.392         378.865          46.500           0.000           0.000           0.000           0.000    36063567.705   145213044.340         292.933          48.250           0.000           0.000           0.000           0.000    36063566.081   152596749.038         307.688          46.250           0.000           0.000           0.000           0.000  
C11  23666500.589   123237682.573        1935.431          44.000           0.000           0.000           0.000           0.000    23666499.753    95295187.955        1496.630          48.500           0.000           0.000           0.000           0.000    23666497.879   100140693.850        1572.797          46.500           0.000           0.000           0.000           0.000  
C12  21955773.707   114329470.645        -246.593          48.750           0.000           0.000           0.000           0.000    21955770.226    88406787.353        -190.693          51.750           0.000           0.000           0.000           0.000    21955769.593    92902045.726        -200.404          50.250           0.000           0.000           0.000           0.000  
C13  38801267.667   202048384.843        1452.736          42.250           0.000           0.000           0.000           0.000    38801272.908   156236642.059        1123.356          44.250           0.000           0.000           0.000           0.000    38801269.563   164180871.517        1180.319          42.750           0.000           0.000           0.000           0.000  
C22  25577498.215   133188737.696        1836.608          42.750           0.000           0.000           0.000           0.000           0.000           0.000           0.000           0.000           0.000           0.000           0.000           0.000    25577492.314   108226740.571        1492.358          43.000           0.000           0.000           0.000           0.000  
C24  23391545.811   121805916.787       -2504.137          48.000           0.000           0.000           0.000           0.000           0.000           0.000           0.000           0.000           0.000           0.000           0.000           0.000    23391542.404    98977270.648       -2034.830          49.500           0.000           0.000           0.000           0.000  
C25  23236244.340   120997222.155         630.816          47.000           0.000           0.000           0.000           0.000           0.000           0.000           0.000           0.000           0.000           0.000           0.000           0.000    23236242.208    98320143.918         512.598          48.250           0.000           0.000           0.000           0.000  
C34  22533588.870   117338310.406        1223.714          49.500           0.000           0.000           0.000           0.000           0.000           0.000           0.000           0.000           0.000           0.000           0.000           0.000    22533588.466    95346986.207         994.324          50.000           0.000           0.000           0.000           0.000  
C38  37040587.830   192880063.454        1206.373          47.500           0.000           0.000           0.000           0.000           0.000           0.000           0.000           0.000           0.000           0.000           0.000           0.000    37040584.747   156730835.564         980.187          48.500           0.000           0.000           0.000           0.000  
C40  35881215.653   186842905.873          70.569          49.500           0.000           0.000           0.000           0.000           0.000           0.000           0.000           0.000           0.000           0.000           0.000           0.000    35881212.261   151825151.219          57.339          49.500           0.000           0.000           0.000           0.000  
C44  22053567.325   114838714.061       -1361.404          50.750           0.000           0.000           0.000           0.000           0.000           0.000           0.000           0.000           0.000           0.000           0.000           0.000    22053565.202    93315852.244       -1106.292          50.500           0.000           0.000           0.000           0.000  
C56  35619683.148   185481038.873         174.458          48.000           0.000           0.000           0.000           0.000           0.000           0.000           0.000           0.000           0.000           0.000           0.000           0.000    35619682.309   150718533.329         141.726          47.250           0.000           0.000           0.000           0.000  
C57  31974598.548   166500126.559       -2258.640          44.500           0.000           0.000           0.000           0.000           0.000           0.000           0.000           0.000           0.000           0.000           0.000           0.000    31974720.567   135295507.038       -1835.350          44.750           0.000           0.000           0.000           0.000  
C59  38023219.129   197996880.547           8.897          45.250           0.000           0.000           0.000           0.000           0.000           0.000           0.000           0.000           0.000           0.000           0.000           0.000    38023205.640   160888626.073           7.225          45.750           0.000           0.000           0.000           0.000  
> 2022  6  2  3 32 20.0000000  0 43
G01  20534102.046   107907435.003       -1999.661          48.000           0.000           0.000           0.000           0.000    20534104.762    84083721.288       -1558.174          46.500           0.000           0.000           0.000           0.000           0.000           0.000           0.000           0.000    20534102.111    80580228.013       -1493.222          52.500  
G03  22363148.176   117519134.205        2366.239          43.500           0.000           0.000           0.000           0.000    22363152.689    91573368.482        1843.808          42.000           0.000           0.000           0.000           0.000           0.000           0.000           0.000           0.000    22363150.950    87757805.976        1767.068          48.250  
G06  24294081.757   127666267.570        3502.369          39.750           0.000           0.000           0.000           0.000    24294090.514    99480240.864        2729.030          41.500           0.000           0.000           0.000           0.000           0.000           0.000           0.000           0.000    24294090.587    95335228.946        2615.345          48.500  
G08  24660670.283   129592684.041       -2775.304          39.250           0.000           0.000           0.000           0.000    24660677.258   100981315.258       -2162.602          35.750           0.000           0.000           0.000           0.000           0.000           0.000           0.000           0.000    24660673.027    96773775.902       -2072.430          43.000  
G14  20252929.979   106429864.337         497.904          47.250           0.000           0.000           0.000           0.000    20252929.524    82932361.559         387.992          45.750           0.000           0.000           0.000           0.000           0.000           0.000           0.000           0.000    20252932.577    79476857.426         371.817          55.250  
G17  21461473.864   112780805.501        1371.140          46.000           0.000           0.000           0.000           0.000    21461473.623    87881137.174        1068.314          42.500           0.000           0.000           0.000           0.000           0.000           0.000           0.000           0.000           0.000           0.000           0.000           0.000  
G19  22893189.693   120304527.538        2605.738          43.000           0.000           0.000           0.000           0.000    22893188.251    93743784.952        2030.445          39.500           0.000           0.000           0.000           0.000           0.000           0.000           0.000           0.000           0.000           0.000           0.000           0.000  
G21  23479247.956   123384277.733       -3081.011          42.000           0.000           0.000           0.000           0.000    23479247.239    96143597.062       -2400.788          37.750           0.000           0.000           0.000           0.000           0.000           0.000           0.000           0.000           0.000           0.000           0.000           0.000  
G28  21505037.782   113009734.056        1958.432          47.000           0.000           0.000           0.000           0.000    21505035.852    88059525.740        1526.050          43.000           0.000           0.000           0.000           0.000           0.000           0.000           0.000           0.000           0.000           0.000           0.000           0.000  
G30  23157028.285   121691004.818       -2979.739          40.500           0.000           0.000           0.000           0.000    23157033.767    94824173.245       -2321.793          42.500           0.000           0.000           0.000           0.000           0.000           0.000           0.000           0.000    23157033.056    90873170.326       -2225.083          49.500  
R02  23245850.946   124044319.524        1468.878          40.750           0.000           0.000           0.000           0.000    23245860.629    96478963.153        1142.589          38.750  
R09  21064034.651   112480771.455        2869.865          49.000           0.000           0.000           0.000           0.000    21064035.491    87485045.995        2232.147          46.750  
R15  22376113.863   119571166.240       -4301.228          47.750           0.000           0.000           0.000           0.000    22376121.345    92999828.905       -3345.456          43.750  
R17  22666333.909   121292130.475       -3350.509          46.250           0.000           0.000           0.000           0.000    22666338.691    94338346.347       -2605.950          42.750  
R18  19781610.120   105595577.072       -1532.044          52.250           0.000           0.000           0.000           0.000    19781608.950    82129891.906       -1191.620          48.500  
R19  20262075.586   108388444.359        1389.965          38.000           0.000           0.000           0.000           0.000    20262077.794    84302128.980        1081.014          45.500  
E02  23409757.376   123019113.417         647.213          46.250    23409758.046    91864918.720         483.352          50.500    23409756.549    94261387.824         495.971          51.750  
E11  23772664.138   124926192.708       -2041.180          40.500    23772660.404    93289024.501       -1524.179          43.000    23772658.874    95722644.222       -1564.022          44.500  
E25  24475836.652   128621388.445       -1938.380          45.250    24475838.934    96048448.069       -1447.466          49.000    24475837.550    98554053.735       -1485.204          51.000  
E30  26986316.954   141814054.527        2645.887          37.750    26986318.859   105900109.909        1975.880          42.500    26986316.952   108662718.448        2027.447          44.750  
E34  26247146.968   137929684.063        2389.895          39.500    26247151.944   102999462.793        1784.587          46.250    26247149.517   105686394.154        1831.245          46.750  
E36  23382901.824   122877974.231         294.689          45.250    23382902.725    91759531.650         220.076          50.500    23382901.238    94153253.556         225.803          51.500  
C01  38057413.654   198174939.525          33.605          43.250           0.000           0.000           0.000           0.000    38057412.710   153241429.121          25.998          44.500           0.000           0.000           0.000           0.000    38057414.695   161033376.523          27.397          42.000           0.000           0.000           0.000           0.000  
C02  38427553.291   200102352.820          37.917          37.750           0.000           0.000           0.000           0.000    38427548.402   154731813.155          29.406          45.000           0.000           0.000           0.000           0.000    38427551.794   162599545.811          30.973          41.250           0.000           0.000           0.000           0.000  
C03  37699276.545   196310023.763          66.220          43.000           0.000           0.000           0.000           0.000    37699273.711   151799352.933          51.190          46.500           0.000           0.000           0.000           0.000    37699273.878   159517965.216          53.726          43.000           0.000           0.000           0.000           0.000  
C04  38900594.493   202565597.841          18.797          39.500           0.000           0.000           0.000           0.000    38900590.753   156636559.693          14.719          43.750           0.000           0.000           0.000           0.000    38900591.772   164601133.012          15.262          41.250           0.000           0.000           0.000           0.000  
C05  39949644.019   208028273.928          40.925          35.250           0.000           0.000           0.000           0.000    39949643.437   160860657.557          31.697          40.000           0.000           0.000           0.000           0.000    39949644.609   169040018.724          33.451          38.750           0.000           0.000           0.000           0.000  
C07  35822628.299   186537824.623          68.623          46.500           0.000           0.000           0.000           0.000    35822621.160   144242852.158          53.043          48.750           0.000           0.000           0.000           0.000    35822620.687   151577230.781          55.728          47.000           0.000           0.000           0.000           0.000  
C08  37792985.385   196797989.242        1467.861          41.000           0.000           0.000           0.000           0.000    37792981.015   152176675.501        1135.156          46.500           0.000           0.000           0.000           0.000    37792979.453   159914464.894        1192.854          43.000           0.000           0.000           0.000           0.000  
C10  36063425.642   187791723.996         378.586          46.250           0.000           0.000           0.000           0.000    36063422.250   145212458.667         292.775          48.250           0.000           0.000           0.000           0.000    36063420.628   152596133.576         307.604          46.000           0.000           0.000           0.000           0.000  
C11  23665757.339   123233812.158        1934.798          43.750           0.000           0.000           0.000           0.000    23665756.470    95292195.098        1496.286          48.500           0.000           0.000           0.000           0.000    23665754.616   100137548.817        1572.312          46.500           0.000           0.000           0.000           0.000  
C12  21955868.558   114329964.579        -247.347          48.500           0.000           0.000           0.000           0.000    21955865.062    88407169.291        -191.224          51.750           0.000           0.000           0.000           0.000    21955864.439    92902447.080        -200.982          50.000           0.000           0.000           0.000           0.000  
C13  38800709.792   202045479.773        1452.242          41.750           0.000           0.000           0.000           0.000    38800715.024   156234395.702        1122.947          44.250           0.000           0.000           0.000           0.000    38800711.667   164178510.904        1180.151          42.500           0.000           0.000           0.000           0.000  
C22  25576792.925   133185065.188        1835.854          42.750           0.000           0.000           0.000           0.000           0.000           0.000           0.000           0.000           0.000           0.000           0.000           0.000    25576787.073   108223756.344        1491.781          43.000           0.000           0.000           0.000           0.000  
C24  23392507.761   121810925.917       -2505.041          47.750           0.000           0.000           0.000           0.000           0.000           0.000           0.000           0.000           0.000           0.000           0.000           0.000    23392504.368    98981340.974       -2035.547          49.250           0.000           0.000           0.000           0.000  
C25  23236002.299   120995961.809         629.428          46.750           0.000           0.000           0.000           0.000           0.000           0.000           0.000           0.000           0.000           0.000           0.000           0.000    23236000.168    98319119.769         511.536          48.000           0.000           0.000           0.000           0.000  
C34  22533119.047   117335863.732        1222.960          49.250           0.000           0.000           0.000           0.000           0.000           0.000           0.000           0.000           0.000           0.000           0.000           0.000    22533118.626    95344998.073         993.821          49.750           0.000           0.000           0.000           0.000  
C38  37040124.587   192877651.302        1205.805          47.250           0.000           0.000           0.000           0.000           0.000           0.000           0.000           0.000           0.000           0.000           0.000           0.000    37040121.521   156728875.491         979.786          48.500           0.000           0.000           0.000           0.000  
C40  35881188.601   186842764.946          70.215          49.250           0.000           0.000           0.000           0.000           0.000           0.000           0.000           0.000           0.000           0.000           0.000           0.000    35881185.193   151825036.689          57.106          49.500           0.000           0.000           0.000           0.000  
C44  22054090.333   114841437.385       -1361.972          50.500           0.000           0.000           0.000           0.000           0.000           0.000           0.000           0.000           0.000           0.000           0.000           0.000    22054088.186    93318065.159       -1106.665          50.250           0.000           0.000           0.000           0.000  
C56  35619616.210   185480690.311         174.067          47.750           0.000           0.000           0.000           0.000           0.000           0.000           0.000           0.000           0.000           0.000           0.000           0.000    35619615.366   150718250.087         141.484          47.000           0.000           0.000           0.000           0.000  
C57  31975466.052   166504644.035       -2258.948          44.000           0.000           0.000           0.000           0.000           0.000           0.000           0.000           0.000           0.000           0.000           0.000           0.000    31975588.103   135299177.843       -1835.443          44.750           0.000           0.000           0.000           0.000  
C59  38023215.760   197996862.985           8.636          45.000           0.000           0.000           0.000           0.000           0.000           0.000           0.000           0.000           0.000           0.000           0.000           0.000    38023202.269   160888611.807           7.048          45.750           0.000           0.000           0.000           0.000  
> 2022  6  2  3 32 22.0000000  0 43
G01  20534863.227   107911435.031       -2000.844          48.250           0.000           0.000           0.000           0.000    20534865.956    84086838.205       -1559.170          46.750           0.000           0.000           0.000           0.000           0.000           0.000           0.000           0.000    20534863.295    80583215.053       -1494.153          52.250  
G03  22362247.728   117514402.348        2365.056          43.250           0.000           0.000           0.000           0.000    22362252.134    91569681.322        1842.988          42.000           0.000           0.000           0.000           0.000           0.000           0.000           0.000           0.000    22362250.491    87754272.450        1766.146          47.750  
G06  24292748.893   127659263.267        3501.819          39.750           0.000           0.000           0.000           0.000    24292757.664    99474782.986        2728.583          41.750           0.000           0.000           0.000           0.000           0.000           0.000           0.000           0.000    24292757.727    95329998.489        2614.814          48.250  
G08  24661726.608   129598234.691       -2775.732          39.000           0.000           0.000           0.000           0.000    24661733.289   100985640.451       -2163.133          35.750           0.000           0.000           0.000           0.000           0.000           0.000           0.000           0.000    24661729.281    96777920.866       -2072.849          42.500  
G14  20252740.647   106428869.485         496.535          47.250           0.000           0.000           0.000           0.000    20252740.214    82931586.368         386.940          45.750           0.000           0.000           0.000           0.000           0.000           0.000           0.000           0.000    20252743.260    79476114.525         370.746          55.000  
G17  21460952.092   112778063.633        1370.450          45.750           0.000           0.000           0.000           0.000    21460951.817    87879000.646        1067.886          42.750           0.000           0.000           0.000           0.000           0.000           0.000           0.000           0.000           0.000           0.000           0.000           0.000  
G19  22892198.030   120299316.234        2605.235          42.750           0.000           0.000           0.000           0.000    22892196.581    93739724.223        2030.054          39.750           0.000           0.000           0.000           0.000           0.000           0.000           0.000           0.000           0.000           0.000           0.000           0.000  
G21  23480420.571   123390439.696       -3081.281          42.000           0.000           0.000           0.000           0.000    23480419.837    96148398.619       -2401.002          37.750           0.000           0.000           0.000           0.000           0.000           0.000           0.000           0.000           0.000           0.000           0.000           0.000  
G28  21504292.520   113005817.764        1957.537          47.000           0.000           0.000           0.000           0.000    21504290.610    88056474.106        1525.351          43.000           0.000           0.000           0.000           0.000           0.000           0.000           0.000           0.000           0.000           0.000           0.000           0.000  
G30  23158162.389   121696964.583       -2980.447          40.500           0.000           0.000           0.000           0.000    23158167.858    94828817.215       -2322.473          42.500           0.000           0.000           0.000           0.000           0.000           0.000           0.000           0.000    23158167.188    90877620.797       -2225.679          49.250  
R02  23245300.741   124041382.908        1467.295          40.500           0.000           0.000           0.000           0.000    23245310.198    96476679.113        1141.136          38.750  
R09  21062960.022   112475032.833        2868.291          49.500           0.000           0.000           0.000           0.000    21062960.767    87480582.622        2230.899          46.750  
R15  22377723.854   119579769.153       -4302.075          48.000           0.000           0.000           0.000           0.000    22377731.266    93006520.025       -3346.052          43.750  
R17  22667586.118   121298831.282       -3350.761          46.500           0.000           0.000           0.000           0.000    22667590.839    94343558.084       -2606.137          42.750  
R18  19782184.261   105598641.788       -1533.180          52.500           0.000           0.000           0.000           0.000    19782183.001    82132275.570       -1192.383          48.500  
R19  20261556.114   108385665.382        1388.382          38.500           0.000           0.000           0.000           0.000    20261558.369    84299967.540        1080.046          45.500  
E02  23409511.163   123017819.542         646.207          46.000    23409511.828    91863952.521         482.542          50.500    23409510.332    94260396.418         495.133          51.750  
E11  23773440.926   124930274.964       -2041.655          40.500    23773437.230    93292072.980       -1524.645          43.000    23773435.703    95725772.191       -1564.329          44.750  
E25  24476574.438   128625265.661       -1939.321          45.250    24476576.735    96051343.396       -1448.220          48.750    24476575.351    98557024.590       -1485.967          51.000  
E30  26985309.929   141808762.757        2645.440          37.750    26985311.873   105896158.275        1975.470          42.500    26985309.979   108658663.723        2027.047          44.750  
E34  26246237.545   137924904.647        2389.057          39.500    26246242.418   102995893.756        1784.065          46.000    26246240.021   105682732.009        1830.659          46.750  
E36  23382789.741   122877385.327         293.758          45.250    23382790.664    91759091.900         219.322          50.250    23382789.172    94152802.326         225.049          51.500  
C01  38057400.723   198174872.176          33.354          43.250           0.000           0.000           0.000           0.000    38057399.770   153241377.036          25.802          44.750           0.000           0.000           0.000           0.000    38057401.758   161033321.787          27.062          42.250           0.000           0.000           0.000           0.000  
C02  38427538.647   200102276.668          37.740          38.000           0.000           0.000           0.000           0.000    38427533.782   154731754.281          29.173          45.000           0.000           0.000           0.000           0.000    38427537.173   162599483.941          30.731          41.250           0.000           0.000           0.000           0.000  
C03  37699251.161   196309891.504          65.717          43.250           0.000           0.000           0.000           0.000    37699248.305   151799250.644          50.901          46.500           0.000           0.000           0.000           0.000    37699248.462   159517857.734          53.409          42.750           0.000           0.000           0.000           0.000  
C04  38900587.212   202565560.007          18.564          39.500           0.000           0.000           0.000           0.000    38900583.496   156636530.455          14.328          43.750           0.000           0.000           0.000           0.000    38900584.503   164601102.263          15.113          41.250           0.000           0.000           0.000           0.000  
C05  39949628.266   208028191.828          40.860          35.250           0.000           0.000           0.000           0.000    39949627.648   160860594.085          31.511          39.750           0.000           0.000           0.000           0.000    39949628.860   169039952.031          33.078          39.000           0.000           0.000           0.000           0.000  
C07  35822601.926   186537687.338          68.306          46.750           0.000           0.000           0.000           0.000    35822594.770   144242745.992          52.736          49.000           0.000           0.000           0.000           0.000    35822594.319   151577119.212          55.449          47.000           0.000           0.000           0.000           0.000  
C08  37792421.551   196795053.361        1467.413          41.250           0.000           0.000           0.000           0.000    37792417.272   152174405.285        1134.691          46.500           0.000           0.000           0.000           0.000    37792415.655   159912079.235        1192.417          43.000           0.000           0.000           0.000           0.000  
C10  36063280.237   187790966.826         378.204          46.500           0.000           0.000           0.000           0.000    36063276.837   145211873.177         292.449          48.250           0.000           0.000           0.000           0.000    36063275.221   152595518.315         307.260          46.250           0.000           0.000           0.000           0.000  
C11  23665014.258   123229942.631        1934.174          43.750           0.000           0.000           0.000           0.000    23665013.347    95289202.947        1495.643          48.250           0.000           0.000           0.000           0.000    23665011.526   100134404.515        1571.660          46.500           0.000           0.000           0.000           0.000  
C12  21955963.617   114330459.612        -248.083          48.500           0.000           0.000           0.000           0.000    21955960.112    88407552.088        -191.867          51.750           0.000           0.000           0.000           0.000    21955959.497    92902849.340        -201.596          50.250           0.000           0.000           0.000           0.000  
C13  38800152.016   202042575.205        1451.888          42.000           0.000           0.000           0.000           0.000    38800157.218   156232149.691        1122.751          44.250           0.000           0.000           0.000           0.000    38800153.873   164176150.698        1179.788          42.750           0.000           0.000           0.000           0.000  
C22  25576087.938   133181394.186        1834.802          43.000           0.000           0.000           0.000           0.000           0.000           0.000           0.000           0.000           0.000           0.000           0.000           0.000    25576082.124   108220773.349        1490.989          43.250           0.000           0.000           0.000           0.000  
C24  23393470.010   121815936.587       -2506.018          47.750           0.000           0.000           0.000           0.000           0.000           0.000           0.000           0.000           0.000           0.000           0.000           0.000    23393466.620    98985412.541       -2036.293          49.250           0.000           0.000           0.000           0.000  
C25  23235760.700   120994703.753         628.134          47.000           0.000           0.000           0.000           0.000           0.000           0.000           0.000           0.000           0.000           0.000           0.000           0.000    23235758.576    98318097.497         510.400          48.250           0.000           0.000           0.000           0.000  
C34  22532649.435   117333418.152        1222.224          49.250           0.000           0.000           0.000           0.000           0.000           0.000           0.000           0.000           0.000           0.000           0.000           0.000    22532648.996    95343010.847         993.132          49.750           0.000           0.000           0.000           0.000  
C38  37039661.471   192875239.811        1205.274          47.250           0.000           0.000           0.000           0.000           0.000           0.000           0.000           0.000           0.000           0.000           0.000           0.000    37039658.425   156726915.947         979.349          48.500           0.000           0.000           0.000           0.000  
C40  35881161.595   186842624.276          69.964          49.500           0.000           0.000           0.000           0.000           0.000           0.000           0.000           0.000           0.000           0.000           0.000           0.000    35881158.176   151824922.391          56.818          49.500           0.000           0.000           0.000           0.000  
C44  22054613.510   114844161.595       -1362.643          50.750           0.000           0.000           0.000           0.000           0.000           0.000           0.000           0.000           0.000           0.000           0.000           0.000    22054611.342    93320278.795       -1107.224          50.250           0.000           0.000           0.000           0.000  
C56  35619549.358   185480342.181         173.583          48.000           0.000           0.000           0.000           0.000           0.000           0.000           0.000           0.000           0.000           0.000           0.000           0.000    35619548.507   150717967.203         141.093          47.250           0.000           0.000           0.000           0.000  
C57  31976333.617   166509161.917       -2259.367          44.000           0.000           0.000           0.000           0.000           0.000           0.000           0.000           0.000           0.000           0.000           0.000           0.000    31976455.714   135302849.006       -1835.974          44.750           0.000           0.000           0.000           0.000  
C59  38023212.397   197996845.515           8.366          45.250           0.000           0.000           0.000           0.000           0.000           0.000           0.000           0.000           0.000           0.000           0.000           0.000    38023198.908   160888597.611           6.768          45.750           0.000           0.000           0.000           0.000  
> 2022  6  2  3 32 24.0000000  0 43
G01  20535624.873   107915437.466       -2001.459          48.250           0.000           0.000           0.000           0.000    20535627.593    84089956.969       -1559.571          46.500           0.000           0.000           0.000           0.000           0.000           0.000           0.000           0.000    20535624.938    80586203.880       -1494.591          52.250  
G03  22361347.702   117509672.719        2364.609          43.500           0.000           0.000           0.000           0.000    22361351.990    91565995.904        1842.532          42.000           0.000           0.000           0.000           0.000           0.000           0.000           0.000           0.000    22361350.461    87750740.599        1765.746          47.750  
G06  24291416.219   127652260.030        3501.745          39.750           0.000           0.000           0.000           0.000    24291425.010    99469325.935        2728.546          41.750           0.000           0.000           0.000           0.000           0.000           0.000           0.000           0.000    24291425.065    95324768.803        2614.879          48.250  
G08  24662783.001   129603785.812       -2775.323          39.000           0.000           0.000           0.000           0.000    24662789.421   100989965.985       -2162.733          36.000           0.000           0.000           0.000           0.000           0.000           0.000           0.000           0.000    24662785.632    96782066.167       -2072.477          42.750  
G14  20252551.818   106427877.242         495.743          47.250           0.000           0.000           0.000           0.000    20252551.396    82930813.187         386.325          45.750           0.000           0.000           0.000           0.000           0.000           0.000           0.000           0.000    20252554.439    79475373.555         370.243          55.000  
G17  21460430.525   112775322.837        1370.460          45.750           0.000           0.000           0.000           0.000    21460430.230    87876864.965        1067.821          42.500           0.000           0.000           0.000           0.000           0.000           0.000           0.000           0.000           0.000           0.000           0.000           0.000  
G19  22891206.528   120294105.810        2605.291          43.000           0.000           0.000           0.000           0.000    22891205.061    93735664.140        2030.100          39.500           0.000           0.000           0.000           0.000           0.000           0.000           0.000           0.000           0.000           0.000           0.000           0.000  
G21  23481593.308   123396602.356       -3081.123          41.750           0.000           0.000           0.000           0.000    23481592.593    96153200.686       -2400.872          37.750           0.000           0.000           0.000           0.000           0.000           0.000           0.000           0.000           0.000           0.000           0.000           0.000  
G28  21503547.562   113001903.097        1957.240          47.000           0.000           0.000           0.000           0.000    21503545.671    88053423.714        1525.119          43.000           0.000           0.000           0.000           0.000           0.000           0.000           0.000           0.000           0.000           0.000           0.000           0.000  
G30  23159296.759   121702925.671       -2980.512          41.000           0.000           0.000           0.000           0.000    23159302.198    94833462.219       -2322.492          42.500           0.000           0.000           0.000           0.000           0.000           0.000           0.000           0.000    23159301.574    90882072.252       -2225.735          49.500  
R02  23244751.147   124038449.436        1466.215          40.500           0.000           0.000           0.000           0.000    23244760.332    96474397.531        1140.457          37.750  
R09  21061885.951   112469297.114        2867.434          49.250           0.000           0.000           0.000           0.000    21061886.586    87476121.518        2230.154          46.750  
R15  22379334.107   119588373.496       -4302.196          48.000           0.000           0.000           0.000           0.000    22379341.480    93013212.268       -3346.043          43.500  
R17  22668838.404   121305532.485       -3350.416          47.000           0.000           0.000           0.000           0.000    22668843.077    94348770.117       -2605.773          42.750  
R18  19782758.755   105601708.396       -1533.488          52.500           0.000           0.000           0.000           0.000    19782757.430    82134660.710       -1192.626          48.500  
R19  20261037.080   108382888.708        1387.972          38.750           0.000           0.000           0.000           0.000    20261039.377    84297807.902        1079.626          45.500  
E02  23409265.320   123016527.592         645.770          46.250    23409265.975    91862987.750         482.253          50.500    23409264.481    94259406.482         494.863          51.750  
E11  23774217.925   124934358.327       -2041.524          40.500    23774214.239    93295122.199       -1524.458          43.000    23774212.731    95728900.972       -1564.226          44.750  
E25  24477312.541   128629144.560       -1939.517          45.250    24477314.850    96054239.967       -1448.351          48.750    24477313.468    98559996.728       -1486.107          51.000  
E30  26984303.070   141803471.828        2645.487          37.750    26984305.052   105892207.267        1975.526          42.500    26984303.166   108654609.643        2027.093          44.750  
E34  26245328.335   137920126.456        2389.057          39.750    26245333.124   102992325.619        1784.065          46.000    26245330.762   105679070.803        1830.612          47.000  
E36  23382677.982   122876798.194         293.413          45.250    23382678.936    91758653.446         219.108          50.250    23382677.440    94152352.443         224.788          51.500  
C01  38057387.865   198174805.185          33.652          43.000           0.000           0.000           0.000           0.000    38057386.903   153241325.240          26.072          44.750           0.000           0.000           0.000           0.000    38057388.893   161033267.367          27.276          42.000           0.000           0.000           0.000           0.000  
C02  38427524.087   200102200.907          37.964          38.000           0.000           0.000           0.000           0.000    38427519.226   154731695.686          29.462          45.000           0.000           0.000           0.000           0.000    38427522.628   162599422.384          30.852          41.000           0.000           0.000           0.000           0.000  
C03  37699225.836   196309759.570          66.118          43.000           0.000           0.000           0.000           0.000    37699222.970   151799148.634          51.190          46.500           0.000           0.000           0.000           0.000    37699223.122   159517750.535          53.763          42.750           0.000           0.000           0.000           0.000  
C04  38900580.003   202565522.549          18.909          39.500           0.000           0.000           0.000           0.000    38900576.301   156636501.479          14.645          43.750           0.000           0.000           0.000           0.000    38900577.297   164601071.814          15.495          41.250           0.000           0.000           0.000           0.000  
C05  39949612.583   208028110.103          41.065          35.250           0.000           0.000           0.000           0.000    39949611.946   160860530.883          31.772          39.750           0.000           0.000           0.000           0.000    39949613.158   169039885.602          33.432          38.750           0.000           0.000           0.000           0.000  
C07  35822575.656   186537550.607          68.492          46.500           0.000           0.000           0.000           0.000    35822568.489   144242640.255          53.006          49.000           0.000           0.000           0.000           0.000    35822568.057   151577008.100          55.672          47.000           0.000           0.000           0.000           0.000  
C08  37791857.868   196792118.336        1467.572          41.000           0.000           0.000           0.000           0.000    37791853.688   152172135.756        1134.812          46.500           0.000           0.000           0.000           0.000    37791852.029   159909694.318        1192.500          42.750           0.000           0.000           0.000           0.000  
C10  36063134.926   187790210.180         378.567          46.250           0.000           0.000           0.000           0.000    36063131.526   145211288.099         292.635          48.500           0.000           0.000           0.000           0.000    36063129.914   152594903.471         307.586          46.000           0.000           0.000           0.000           0.000  
C11  23664271.400   123226074.277        1934.192          43.750           0.000           0.000           0.000           0.000    23664270.444    95286211.701        1495.578          48.500           0.000           0.000           0.000           0.000    23664268.669   100131261.178        1571.660          46.500           0.000           0.000           0.000           0.000  
C12  21956058.941   114330956.042        -248.269          48.250           0.000           0.000           0.000           0.000    21956055.429    88407935.957        -191.960          52.000           0.000           0.000           0.000           0.000    21956054.824    92903252.728        -201.736          50.000           0.000           0.000           0.000           0.000  
C13  38799594.392   202039671.412        1451.916          42.000           0.000           0.000           0.000           0.000    38799599.567   156229904.315        1122.742          44.250           0.000           0.000           0.000           0.000    38799596.225   164173791.120        1180.086          42.500           0.000           0.000           0.000           0.000  
C22  25575383.293   133177724.939        1834.531          43.000           0.000           0.000           0.000           0.000           0.000           0.000           0.000           0.000           0.000           0.000           0.000           0.000    25575377.515   108217791.803        1490.635          43.000           0.000           0.000           0.000           0.000  
C24  23394432.602   121820949.044       -2506.382          47.750           0.000           0.000           0.000           0.000           0.000           0.000           0.000           0.000           0.000           0.000           0.000           0.000    23394429.214    98989485.578       -2036.656          49.250           0.000           0.000           0.000           0.000  
C25  23235519.595   120993448.270         627.388          46.750           0.000           0.000           0.000           0.000           0.000           0.000           0.000           0.000           0.000           0.000           0.000           0.000    23235517.477    98317077.319         509.804          48.000           0.000           0.000           0.000           0.000  
C34  22532180.080   117330973.933        1222.057          49.250           0.000           0.000           0.000           0.000           0.000           0.000           0.000           0.000           0.000           0.000           0.000           0.000    22532179.623    95341024.719         993.002          49.750           0.000           0.000           0.000           0.000  
C38  37039198.527   192872829.238        1205.386          47.250           0.000           0.000           0.000           0.000           0.000           0.000           0.000           0.000           0.000           0.000           0.000           0.000    37039195.509   156724957.170         979.423          48.500           0.000           0.000           0.000           0.000  
C40  35881134.689   186842484.147          70.225          49.250           0.000           0.000           0.000           0.000           0.000           0.000           0.000           0.000           0.000           0.000           0.000           0.000    35881131.264   151824808.523          57.051          49.250           0.000           0.000           0.000           0.000  
C44  22055136.906   114846886.931       -1362.643          50.750           0.000           0.000           0.000           0.000           0.000           0.000           0.000           0.000           0.000           0.000           0.000           0.000    22055134.717    93322493.363       -1107.298          50.250           0.000           0.000           0.000           0.000  
C56  35619482.635   185479994.717         173.862          47.750           0.000           0.000           0.000           0.000           0.000           0.000           0.000           0.000           0.000           0.000           0.000           0.000    35619481.778   150717684.862         141.242          47.000           0.000           0.000           0.000           0.000  
C57  31977201.302   166513680.463       -2259.208          43.750           0.000           0.000           0.000           0.000           0.000           0.000           0.000           0.000           0.000           0.000           0.000           0.000    31977323.451   135306520.680       -1835.704          44.500           0.000           0.000           0.000           0.000  
C59  38023209.112   197996828.414           8.748          45.000           0.000           0.000           0.000           0.000           0.000           0.000           0.000           0.000           0.000           0.000           0.000           0.000    38023195.618   160888583.715           7.122          45.500           0.000           0.000           0.000           0.000  
> 2022  6  2  3 32 26.0000000  0 43
G01  20536386.806   107919441.403       -2002.623          48.500           0.000           0.000           0.000           0.000    20536389.505    84093076.924       -1560.484          46.750           0.000           0.000           0.000           0.000           0.000           0.000           0.000           0.000    20536386.872    80589193.840       -1495.485          52.250  
G03  22360447.936   117504944.474        2363.473          43.500           0.000           0.000           0.000           0.000    22360452.122    91562311.543        1841.787          42.500           0.000           0.000           0.000           0.000           0.000           0.000           0.000           0.000    22360450.691    87747209.761        1764.991          47.750  
G06  24290083.580   127645256.990        3501.177          40.250           0.000           0.000           0.000           0.000    24290092.378    99463869.014        2728.303          42.250           0.000           0.000           0.000           0.000           0.000           0.000           0.000           0.000    24290092.439    95319539.271        2614.535          48.250  
G08  24663839.281   129609336.559       -2775.658          38.750           0.000           0.000           0.000           0.000    24663845.508   100994291.216       -2162.816          36.500           0.000           0.000           0.000           0.000           0.000           0.000           0.000           0.000    24663841.919    96786211.197       -2072.663          42.750  
G14  20252363.320   106426886.706         494.588          47.500           0.000           0.000           0.000           0.000    20252362.903    82930041.321         385.450          46.000           0.000           0.000           0.000           0.000           0.000           0.000           0.000           0.000    20252365.950    79474633.886         369.293          55.000  
G17  21459908.999   112772582.249        1369.920          46.000           0.000           0.000           0.000           0.000    21459908.691    87874729.425        1067.532          43.000           0.000           0.000           0.000           0.000           0.000           0.000           0.000           0.000           0.000           0.000           0.000           0.000  
G19  22890215.018   120288895.377        2604.918          43.000           0.000           0.000           0.000           0.000    22890213.541    93731604.047        2029.802          39.750           0.000           0.000           0.000           0.000           0.000           0.000           0.000           0.000           0.000           0.000           0.000           0.000  
G21  23482766.003   123402764.860       -3081.532          42.000           0.000           0.000           0.000           0.000    23482765.288    96158002.604       -2401.198          38.000           0.000           0.000           0.000           0.000           0.000           0.000           0.000           0.000           0.000           0.000           0.000           0.000  
G28  21502802.733   112997989.148        1956.541          47.250           0.000           0.000           0.000           0.000    21502800.866    88050373.846        1524.578          43.250           0.000           0.000           0.000           0.000           0.000           0.000           0.000           0.000           0.000           0.000           0.000           0.000  
G30  23160431.227   121708887.217       -2981.219          41.250           0.000           0.000           0.000           0.000    23160436.618    94838107.573       -2323.116          43.000           0.000           0.000           0.000           0.000           0.000           0.000           0.000           0.000    23160436.048    90886524.052       -2226.210          49.500  
R02  23244201.934   124035518.207        1464.846          39.750           0.000           0.000           0.000           0.000    23244210.834    96472117.689        1139.395          38.250  
R09  21060812.246   112463563.315        2866.167          49.500           0.000           0.000           0.000           0.000    21060812.775    87471661.891        2229.316          47.750  
R15  22380944.450   119596978.385       -4302.895          47.500           0.000           0.000           0.000           0.000    22380951.798    93019904.950       -3346.667          44.250  
R17  22670090.597   121312233.098       -3350.463          46.750           0.000           0.000           0.000           0.000    22670095.199    94353981.714       -2605.904          43.500  
R18  19783333.414   105604775.970       -1534.335          52.000           0.000           0.000           0.000           0.000    19783332.057    82137046.603       -1193.352          49.500  
R19  20260518.311   108380113.460        1386.883          38.250           0.000           0.000           0.000           0.000    20260520.640    84295649.392        1078.751          46.250  
E02  23409019.671   123015236.680         644.932          46.500    23409020.318    91862023.755         481.582          50.750    23409018.831    94258417.342         494.127          52.000  
E11  23774994.959   124938441.843       -2042.251          40.750    23774991.303    93298171.601       -1524.952          43.250    23774989.805    95732029.933       -1564.813          44.750  
E25  24478050.801   128633024.277       -1940.290          45.500    24478053.124    96057137.159       -1448.938          49.250    24478051.740    98562969.501       -1486.778          51.250  
E30  26983296.213   141798180.850        2645.263          38.000    26983298.217   105888256.235        1975.238          42.750    26983296.336   108650555.523        2026.842          45.000  
E34  26244419.164   137915348.594        2388.507          39.750    26244423.904   102988757.760        1783.581          46.250    26244421.572   105675409.855        1830.165          47.000  
E36  23382566.374   122876211.932         292.659          45.250    23382567.376    91758215.662         218.521          50.500    23382565.872    94151903.227         224.192          51.750  
C01  38057374.914   198174737.685          33.680          43.250           0.000           0.000           0.000           0.000    38057373.934   153241273.032          26.053          45.000           0.000           0.000           0.000           0.000    38057375.930   161033212.511          27.369          42.500           0.000           0.000           0.000           0.000  
C02  38427509.427   200102124.606          38.075          37.750           0.000           0.000           0.000           0.000    38427504.572   154731636.691          29.415          45.500           0.000           0.000           0.000           0.000    38427507.979   162599360.401          30.824          41.750           0.000           0.000           0.000           0.000  
C03  37699200.420   196309627.153          66.108          43.000           0.000           0.000           0.000           0.000    37699197.549   151799046.242          51.097          46.750           0.000           0.000           0.000           0.000    37699197.689   159517642.925          53.754          43.250           0.000           0.000           0.000           0.000  
C04  38900572.703   202565484.588          18.974          39.750           0.000           0.000           0.000           0.000    38900569.010   156636472.117          14.561          44.000           0.000           0.000           0.000           0.000    38900570.000   164601040.982          15.262          41.750           0.000           0.000           0.000           0.000  
C05  39949596.798   208028027.834          41.000          35.000           0.000           0.000           0.000           0.000    39949596.146   160860467.283          31.595          40.000           0.000           0.000           0.000           0.000    39949597.358   169039818.770          33.339          39.250           0.000           0.000           0.000           0.000  
C07  35822549.319   186537413.558          68.213          46.500           0.000           0.000           0.000           0.000    35822542.162   144242534.288          52.745          49.250           0.000           0.000           0.000           0.000    35822541.733   151576896.728          55.532          47.500           0.000           0.000           0.000           0.000  
C08  37791294.190   196789183.376        1467.227          41.000           0.000           0.000           0.000           0.000    37791290.100   152169866.254        1134.467          46.750           0.000           0.000           0.000           0.000    37791288.416   159907309.417        1192.193          43.500           0.000           0.000           0.000           0.000  
C10  36062989.541   187789453.163         378.288          46.250           0.000           0.000           0.000           0.000    36062986.137   145210702.709         292.523          48.750           0.000           0.000           0.000           0.000    36062984.540   152594288.327         307.418          46.750           0.000           0.000           0.000           0.000  
C11  23663528.606   123222206.235        1933.643          43.750           0.000           0.000           0.000           0.000    23663527.598    95283220.676        1495.224          48.750           0.000           0.000           0.000           0.000    23663525.866   100128118.063        1571.334          47.000           0.000           0.000           0.000           0.000  
C12  21956154.358   114331452.970        -248.809          48.250           0.000           0.000           0.000           0.000    21956150.844    88408320.219        -192.472          52.250           0.000           0.000           0.000           0.000    21956150.247    92903656.522        -202.202          50.750           0.000           0.000           0.000           0.000  
C13  38799036.733   202036767.496        1451.646          41.750           0.000           0.000           0.000           0.000    38799041.875   156227658.826        1122.453          44.500           0.000           0.000           0.000           0.000    38799038.567   164171431.475        1179.536          43.000           0.000           0.000           0.000           0.000  
C22  25574678.815   133174056.579        1833.572          43.000           0.000           0.000           0.000           0.000           0.000           0.000           0.000           0.000           0.000           0.000           0.000           0.000    25574673.071   108214810.943        1489.993          43.750           0.000           0.000           0.000           0.000  
C24  23395395.371   121825962.408       -2507.183          47.750           0.000           0.000           0.000           0.000           0.000           0.000           0.000           0.000           0.000           0.000           0.000           0.000    23395391.976    98993559.341       -2037.261          49.750           0.000           0.000           0.000           0.000  
C25  23235278.814   120992194.467         626.159          46.750           0.000           0.000           0.000           0.000           0.000           0.000           0.000           0.000           0.000           0.000           0.000           0.000    23235276.702    98316058.503         508.844          48.500           0.000           0.000           0.000           0.000  
C34  22531710.808   117328530.194        1221.488          49.250           0.000           0.000           0.000           0.000           0.000           0.000           0.000           0.000           0.000           0.000           0.000           0.000    22531710.339    95339038.978         992.601          50.250           0.000           0.000           0.000           0.000  
C38  37038735.600   192870418.734        1204.976          47.250           0.000           0.000           0.000           0.000           0.000           0.000           0.000           0.000           0.000           0.000           0.000           0.000    37038732.605   156722998.443         979.078          49.000           0.000           0.000           0.000           0.000  
C40  35881107.713   186842343.683          69.983          49.250           0.000           0.000           0.000           0.000           0.000           0.000           0.000           0.000           0.000           0.000           0.000           0.000    35881104.292   151824694.388          56.883          49.750           0.000           0.000           0.000           0.000  
C44  22055660.355   114849612.531       -1363.146          50.750           0.000           0.000           0.000           0.000           0.000           0.000           0.000           0.000           0.000           0.000           0.000           0.000    22055658.141    93324708.132       -1107.661          50.750           0.000           0.000           0.000           0.000  
C56  35619415.881   185479647.078         173.546          48.000           0.000           0.000           0.000           0.000           0.000           0.000           0.000           0.000           0.000           0.000           0.000           0.000    35619415.019   150717402.377         141.093          47.500           0.000           0.000           0.000           0.000  
C57  31978068.936   166518198.795       -2259.414          43.750           0.000           0.000           0.000           0.000           0.000           0.000           0.000           0.000           0.000           0.000           0.000           0.000    31978191.152   135310192.204       -1835.928          45.000           0.000           0.000           0.000           0.000  
C59  38023205.735   197996810.794           8.739          45.250           0.000           0.000           0.000           0.000           0.000           0.000           0.000           0.000           0.000           0.000           0.000           0.000    38023192.224   160888569.396           7.104          46.000           0.000           0.000           0.000           0.000  
> 2022  6  2  3 32 28.0000000  0 43
G01  20537149.119   107923447.334       -2003.498          48.500           0.000           0.000           0.000           0.000    20537151.767    84096198.398       -1561.080          46.750           0.000           0.000           0.000           0.000           0.000           0.000           0.000           0.000    20537149.181    80592185.271       -1496.044          52.250  
G03  22359548.503   117500218.029        2362.728          43.750           0.000           0.000           0.000           0.000    22359552.607    91558628.600        1841.247          42.500           0.000           0.000           0.000           0.000           0.000           0.000           0.000           0.000    22359551.272    87743680.280        1764.396          48.000  
G06  24288751.066   127638254.591        3500.944          40.250           0.000           0.000           0.000           0.000    24288759.870    99458412.613        2728.108          42.250           0.000           0.000           0.000           0.000           0.000           0.000           0.000           0.000    24288759.932    95314310.223        2614.395          48.000  
G08  24664895.542   129614887.374       -2775.406          38.250           0.000           0.000           0.000           0.000    24664901.656   100998616.520       -2162.658          36.750           0.000           0.000           0.000           0.000           0.000           0.000           0.000           0.000    24664898.222    96790356.276       -2072.514          43.000  
G14  20252175.240   106425898.378         493.582          47.500           0.000           0.000           0.000           0.000    20252174.842    82929271.226         384.621          46.000           0.000           0.000           0.000           0.000           0.000           0.000           0.000           0.000    20252177.872    79473895.840         368.641          55.000  
G17  21459387.595   112769842.302        1369.845          46.000           0.000           0.000           0.000           0.000    21459387.292    87872594.403        1067.411          43.000           0.000           0.000           0.000           0.000           0.000           0.000           0.000           0.000           0.000           0.000           0.000           0.000  
G19  22889223.586   120283685.449        2604.816          43.000           0.000           0.000           0.000           0.000    22889222.124    93727544.396        2029.728          40.000           0.000           0.000           0.000           0.000           0.000           0.000           0.000           0.000           0.000           0.000           0.000           0.000  
G21  23483938.745   123408927.653       -3081.402          42.000           0.000           0.000           0.000           0.000    23483938.035    96162804.807       -2401.095          38.000           0.000           0.000           0.000           0.000           0.000           0.000           0.000           0.000           0.000           0.000           0.000           0.000  
G28  21502058.142   112994076.414        1956.047          47.250           0.000           0.000           0.000           0.000    21502056.316    88047325.009        1524.187          43.250           0.000           0.000           0.000           0.000           0.000           0.000           0.000           0.000           0.000           0.000           0.000           0.000  
G30  23161565.870   121714849.677       -2981.480          41.250           0.000           0.000           0.000           0.000    23161571.213    94842753.645       -2323.302          43.000           0.000           0.000           0.000           0.000           0.000           0.000           0.000           0.000    23161570.693    90890976.538       -2226.406          49.500  
R02  23243653.227   124032589.817        1463.458          40.750           0.000           0.000           0.000           0.000    23243661.839    96469840.044        1138.333          38.500  
R09  21059739.005   112457831.967        2865.050          49.500           0.000           0.000           0.000           0.000    21059739.434    87467204.179        2228.385          47.500  
R15  22382554.960   119605584.230       -4303.184          47.500           0.000           0.000           0.000           0.000    22382562.269    93026598.374       -3346.965          44.000  
R17  22671342.785   121318933.654       -3350.165          46.500           0.000           0.000           0.000           0.000    22671347.288    94359193.254       -2605.746          43.250  
R18  19783908.326   105607844.927       -1534.801          52.250           0.000           0.000           0.000           0.000    19783906.951    82139433.564       -1193.697          49.250  
R19  20259999.878   108377340.073        1386.175          38.000           0.000           0.000           0.000           0.000    20260002.234    84293492.320        1078.127          46.250  
E02  23408774.316   123013947.276         644.326          46.500    23408774.950    91861060.889         481.191          50.750    23408773.468    94257429.355         493.736          52.000  
E11  23775772.120   124942526.012       -2042.204          40.750    23775768.490    93301221.490       -1525.073          43.250    23775766.997    95735159.374       -1564.897          44.750  
E25  24478789.308   128636905.282       -1940.830          45.500    24478791.641    96060035.310       -1449.329          49.250    24478790.257    98565943.250       -1487.113          51.250  
E30  26982289.444   141792890.302        2645.124          38.250    26982291.456   105884305.497        1975.247          42.750    26982289.591   108646501.733        2026.870          45.000  
E34  26243510.119   137910571.551        2388.312          39.750    26243514.837   102985190.485        1783.478          46.250    26243512.540   105671749.529        1830.044          47.000  
E36  23382455.020   122875627.034         292.091          45.500    23382456.072    91757778.883         218.149          50.750    23382454.566    94151455.059         223.838          51.750  
C01  38057361.964   198174670.163          33.773          43.000           0.000           0.000           0.000           0.000    38057360.973   153241220.821          26.156          45.000           0.000           0.000           0.000           0.000    38057362.960   161033157.627          27.565          43.000           0.000           0.000           0.000           0.000  
C02  38427494.762   200102048.273          38.243          37.750           0.000           0.000           0.000           0.000    38427489.922   154731577.676          29.490          45.500           0.000           0.000           0.000           0.000    38427493.326   162599298.362          30.992          42.000           0.000           0.000           0.000           0.000  
C03  37699175.000   196309494.701          66.136          43.000           0.000           0.000           0.000           0.000    37699172.122   151798943.810          51.236          47.000           0.000           0.000           0.000           0.000    37699172.259   159517535.302          53.819          43.500           0.000           0.000           0.000           0.000  
C04  38900565.403   202565446.596          18.955          39.500           0.000           0.000           0.000           0.000    38900561.717   156636442.737          14.747          44.250           0.000           0.000           0.000           0.000    38900562.705   164601010.107          15.476          42.000           0.000           0.000           0.000           0.000  
C05  39949580.995   208027945.566          41.167          35.000           0.000           0.000           0.000           0.000    39949580.347   160860403.658          31.865          40.250           0.000           0.000           0.000           0.000    39949581.555   169039751.914          33.563          39.500           0.000           0.000           0.000           0.000  
C07  35822523.014   186537276.685          68.371          46.500           0.000           0.000           0.000           0.000    35822515.866   144242428.444          52.941          49.250           0.000           0.000           0.000           0.000    35822515.450   151576785.523          55.598          47.750           0.000           0.000           0.000           0.000  
C08  37790730.601   196786248.898        1467.199          41.250           0.000           0.000           0.000           0.000    37790726.597   152167597.142        1134.467          46.750           0.000           0.000           0.000           0.000    37790724.902   159904924.927        1192.165          43.750           0.000           0.000           0.000           0.000  
C10  36062844.164   187788696.192         378.362          46.250           0.000           0.000           0.000           0.000    36062840.761   145210117.375         292.691          48.750           0.000           0.000           0.000           0.000    36062839.178   152593673.236         307.492          47.000           0.000           0.000           0.000           0.000  
C11  23662785.947   123218338.907        1933.485          44.000           0.000           0.000           0.000           0.000    23662784.899    95280230.221        1495.122          49.000           0.000           0.000           0.000           0.000    23662783.211   100124975.559        1571.130          47.250           0.000           0.000           0.000           0.000  
C12  21956249.965   114331950.892        -249.210          48.250           0.000           0.000           0.000           0.000    21956246.451    88408705.241        -192.677          52.250           0.000           0.000           0.000           0.000    21956245.864    92904061.124        -202.463          50.750           0.000           0.000           0.000           0.000  
C13  38798479.133   202033863.942        1451.730          41.750           0.000           0.000           0.000           0.000    38798484.235   156225413.601        1122.602          44.500           0.000           0.000           0.000           0.000    38798480.967   164169072.087        1179.676          43.500           0.000           0.000           0.000           0.000  
C22  25573974.593   133170389.534        1833.274          43.000           0.000           0.000           0.000           0.000           0.000           0.000           0.000           0.000           0.000           0.000           0.000           0.000    25573968.883   108211831.190        1489.657          44.000           0.000           0.000           0.000           0.000  
C24  23396358.413   121830977.162       -2507.676          47.750           0.000           0.000           0.000           0.000           0.000           0.000           0.000           0.000           0.000           0.000           0.000           0.000    23396355.006    98997634.238       -2037.680          50.000           0.000           0.000           0.000           0.000  
C25  23235038.445   120990942.810         625.367          46.750           0.000           0.000           0.000           0.000           0.000           0.000           0.000           0.000           0.000           0.000           0.000           0.000    23235036.342    98315041.433         508.137          48.750           0.000           0.000           0.000           0.000  
C34  22531241.709   117326087.388        1221.228          49.250           0.000           0.000           0.000           0.000           0.000           0.000           0.000           0.000           0.000           0.000           0.000           0.000    22531241.235    95337054.006         992.341          50.500           0.000           0.000           0.000           0.000  
C38  37038272.769   192868008.734        1204.902          47.250           0.000           0.000           0.000           0.000           0.000           0.000           0.000           0.000           0.000           0.000           0.000           0.000    37038269.799   156721040.113         979.106          49.250           0.000           0.000           0.000           0.000  
C40  35881080.755   186842203.333          70.178          49.250           0.000           0.000           0.000           0.000           0.000           0.000           0.000           0.000           0.000           0.000           0.000           0.000    35881077.337   151824580.337          57.060          50.250           0.000           0.000           0.000           0.000  
C44  22056183.944   114852338.851       -1363.341          50.750           0.000           0.000           0.000           0.000           0.000           0.000           0.000           0.000           0.000           0.000           0.000           0.000    22056181.703    93326923.483       -1107.764          51.000           0.000           0.000           0.000           0.000  
C56  35619349.185   185479299.721         173.639          47.750           0.000           0.000           0.000           0.000           0.000           0.000           0.000           0.000           0.000           0.000           0.000           0.000    35619348.314   150717120.119         141.140          47.750           0.000           0.000           0.000           0.000  
C57  31978936.626   166522717.388       -2259.348          44.000           0.000           0.000           0.000           0.000           0.000           0.000           0.000           0.000           0.000           0.000           0.000           0.000    31979058.895   135313863.913       -1835.891          45.500           0.000           0.000           0.000           0.000  
C59  38023202.352   197996793.142           8.823          45.250           0.000           0.000           0.000           0.000           0.000           0.000           0.000           0.000           0.000           0.000           0.000           0.000    38023188.826   160888555.050           7.169          46.250           0.000           0.000           0.000           0.000  
> 2022  6  2  3 32 30.0000000  0 43
G01  20537911.847   107927455.451       -2004.970          48.750           0.000           0.000           0.000           0.000    20537914.445    84099321.619       -1562.355          46.750           0.000           0.000           0.000           0.000           0.000           0.000           0.000           0.000    20537911.914    80595178.357       -1497.245          52.250  
G03  22358649.466   117495493.654        2361.275          43.750           0.000           0.000           0.000           0.000    22358653.493    91554947.278        1839.924          42.750           0.000           0.000           0.000           0.000           0.000           0.000           0.000           0.000    22358652.250    87740152.347        1763.250          48.000  
G06  24287418.719   127631253.069        3500.143          40.250           0.000           0.000           0.000           0.000    24287427.532    99452956.899        2727.438          42.500           0.000           0.000           0.000           0.000           0.000           0.000           0.000           0.000    24287427.592    95309081.844        2613.678          48.250  
G08  24665951.849   129620438.544       -2776.198          38.000           0.000           0.000           0.000           0.000    24665957.923   101002942.078       -2163.096          37.500           0.000           0.000           0.000           0.000           0.000           0.000           0.000           0.000    24665954.586    96794501.599       -2073.045          43.250  
G14  20251987.617   106424912.469         491.915          47.750           0.000           0.000           0.000           0.000    20251987.235    82928502.989         383.336          46.000           0.000           0.000           0.000           0.000           0.000           0.000           0.000           0.000    20251990.259    79473159.615         367.328          55.000  
G17  21458866.360   112767103.290        1368.774          46.000           0.000           0.000           0.000           0.000    21458866.073    87870460.115        1066.647          43.000           0.000           0.000           0.000           0.000           0.000           0.000           0.000           0.000           0.000           0.000           0.000           0.000  
G19  22888232.280   120278476.224        2603.922          43.250           0.000           0.000           0.000           0.000    22888230.829    93723485.259        2029.029          39.750           0.000           0.000           0.000           0.000           0.000           0.000           0.000           0.000           0.000           0.000           0.000           0.000  
G21  23485111.580   123415090.969       -3082.231          42.000           0.000           0.000           0.000           0.000    23485110.886    96167607.377       -2401.738          38.000           0.000           0.000           0.000           0.000           0.000           0.000           0.000           0.000           0.000           0.000           0.000           0.000  
G28  21501313.829   112990165.145        1954.762          47.250           0.000           0.000           0.000           0.000    21501312.029    88044277.251        1523.191          43.250           0.000           0.000           0.000           0.000           0.000           0.000           0.000           0.000           0.000           0.000           0.000           0.000  
G30  23162700.733   121720813.299       -2982.468          41.500           0.000           0.000           0.000           0.000    23162706.032    94847400.610       -2324.112          43.250           0.000           0.000           0.000           0.000           0.000           0.000           0.000           0.000    23162705.549    90895429.884       -2227.141          49.500  
R02  23243105.080   124029664.411        1461.577          40.750           0.000           0.000           0.000           0.000    23243113.420    96467564.756        1136.787          39.000  
R09  21058666.257   112452103.261        2863.215          49.250           0.000           0.000           0.000           0.000    21058666.594    87462748.535        2226.941          47.750  
R15  22384165.722   119614191.463       -4304.403          47.750           0.000           0.000           0.000           0.000    22384172.981    93033292.886       -3347.877          44.250  
R17  22672595.008   121325634.359       -3350.854          46.750           0.000           0.000           0.000           0.000    22672599.390    94364404.918       -2606.220          43.250  
R18  19784483.572   105610915.629       -1536.207          52.500           0.000           0.000           0.000           0.000    19784482.180    82141821.899       -1194.814          49.500  
R19  20259481.840   108374568.783        1384.620          38.250           0.000           0.000           0.000           0.000    20259484.208    84291336.873        1077.000          46.250  
E02  23408529.303   123012659.635         642.929          46.500    23408529.916    91860099.336         480.130          51.000    23408528.440    94256442.721         492.637          51.750  
E11  23776549.452   124946611.077       -2043.135          41.000    23776545.831    93304271.999       -1525.651          43.250    23776544.349    95738289.453       -1565.530          44.750  
E25  24479528.106   128640787.801       -1942.124          45.750    24479530.448    96062934.588       -1450.288          49.250    24479529.061    98568918.159       -1488.054          51.000  
E30  26981282.812   141787600.420        2644.425          38.500    26981284.817   105880355.270        1974.660          42.750    26981282.976   108642448.452        2026.236          44.750  
E34  26242601.256   137905795.560        2387.250          39.750    26242605.975   102981623.997        1782.724          46.250    26242603.713   105668089.999        1829.206          47.250  
E36  23382343.971   122875043.716         290.843          45.750    23382345.073    91757343.295         217.171          50.750    23382343.561    94151008.102         222.842          51.500  
C01  38057349.044   198174602.826          33.205          43.000           0.000           0.000           0.000           0.000    38057348.044   153241168.764          25.606          44.750           0.000           0.000           0.000           0.000    38057350.032   161033102.924          26.997          42.750           0.000           0.000           0.000           0.000  
C02  38427480.132   200101972.110          37.703          37.750           0.000           0.000           0.000           0.000    38427475.304   154731518.773          29.080          45.250           0.000           0.000           0.000           0.000    38427478.700   162599236.469          30.573          41.750           0.000           0.000           0.000           0.000  
C03  37699149.613   196309362.442          65.624          43.000           0.000           0.000           0.000           0.000    37699146.738   151798841.538          50.789          46.750           0.000           0.000           0.000           0.000    37699146.867   159517427.831          53.362          43.500           0.000           0.000           0.000           0.000  
C04  38900558.142   202565408.802          18.415          39.250           0.000           0.000           0.000           0.000    38900554.473   156636413.529          14.226          44.000           0.000           0.000           0.000           0.000    38900555.446   164600979.404          14.973          41.750           0.000           0.000           0.000           0.000  
C05  39949565.220   208027863.457          40.478          35.000           0.000           0.000           0.000           0.000    39949564.567   160860340.166          31.381          40.000           0.000           0.000           0.000           0.000    39949565.789   169039685.204          32.892          39.500           0.000           0.000           0.000           0.000  
C07  35822496.788   186537140.216          67.719          46.500           0.000           0.000           0.000           0.000    35822489.646   144242322.905          52.363          49.000           0.000           0.000           0.000           0.000    35822489.241   151576674.626          55.067          47.500           0.000           0.000           0.000           0.000  
C08  37790167.159   196783315.184        1466.231          41.000           0.000           0.000           0.000           0.000    37790163.222   152165328.591        1133.778          46.250           0.000           0.000           0.000           0.000    37790161.529   159902541.026        1191.392          43.500           0.000           0.000           0.000           0.000  
C10  36062698.848   187787939.539         377.878          46.250           0.000           0.000           0.000           0.000    36062695.450   145209532.295         292.170          48.500           0.000           0.000           0.000           0.000    36062693.872   152593058.402         306.952          46.750           0.000           0.000           0.000           0.000  
C11  23662043.485   123214472.617        1932.404          44.000           0.000           0.000           0.000           0.000    23662042.403    95277240.565        1494.265          48.750           0.000           0.000           0.000           0.000    23662040.745   100121833.878        1570.301          47.250           0.000           0.000           0.000           0.000  
C12  21956345.799   114332450.007        -250.206          48.250           0.000           0.000           0.000           0.000    21956342.291    88409091.195        -193.534          52.000           0.000           0.000           0.000           0.000    21956341.713    92904466.706        -203.385          50.750           0.000           0.000           0.000           0.000  
C13  38797921.633   202030960.976        1450.985          41.750           0.000           0.000           0.000           0.000    38797926.711   156223168.863        1121.978          44.250           0.000           0.000           0.000           0.000    38797923.493   164166713.199        1179.024          43.250           0.000           0.000           0.000           0.000  
C22  25573270.693   133166724.104        1831.905          43.000           0.000           0.000           0.000           0.000           0.000           0.000           0.000           0.000           0.000           0.000           0.000           0.000    25573265.000   108208852.723        1488.568          43.750           0.000           0.000           0.000           0.000  
C24  23397321.767   121835993.545       -2509.092          47.750           0.000           0.000           0.000           0.000           0.000           0.000           0.000           0.000           0.000           0.000           0.000           0.000    23397318.347    99001710.456       -2038.816          49.750           0.000           0.000           0.000           0.000  
C25  23234798.540   120989693.557         623.626          46.750           0.000           0.000           0.000           0.000           0.000           0.000           0.000           0.000           0.000           0.000           0.000           0.000    23234796.442    98314026.316         506.730          48.750           0.000           0.000           0.000           0.000  
C34  22530772.836   117323645.776        1220.082          49.250           0.000           0.000           0.000           0.000           0.000           0.000           0.000           0.000           0.000           0.000           0.000           0.000    22530772.355    95335069.994         991.400          50.250           0.000           0.000           0.000           0.000  
C38  37037810.086   192865599.507        1203.989          47.250           0.000           0.000           0.000           0.000           0.000           0.000           0.000           0.000           0.000           0.000           0.000           0.000    37037807.144   156719082.428         978.333          49.000           0.000           0.000           0.000           0.000  
C40  35881053.868   186842063.353          69.498          49.250           0.000           0.000           0.000           0.000           0.000           0.000           0.000           0.000           0.000           0.000           0.000           0.000    35881050.456   151824466.592          56.436          50.000           0.000           0.000           0.000           0.000  
C44  22056707.710   114855066.128       -1364.310          50.500           0.000           0.000           0.000           0.000           0.000           0.000           0.000           0.000           0.000           0.000           0.000           0.000    22056705.451    93329139.619       -1108.583          50.750           0.000           0.000           0.000           0.000  
C56  35619282.587   185478952.867         172.884          48.000           0.000           0.000           0.000           0.000           0.000           0.000           0.000           0.000           0.000           0.000           0.000           0.000    35619281.707   150716838.282         140.450          47.750           0.000           0.000           0.000           0.000  
C57  31979804.422   166527236.474       -2260.140          44.000           0.000           0.000           0.000           0.000           0.000           0.000           0.000           0.000           0.000           0.000           0.000           0.000    31979926.738   135317536.048       -1836.570          45.250           0.000           0.000           0.000           0.000  
C59  38023199.003   197996775.682           8.208          45.000           0.000           0.000           0.000           0.000           0.000           0.000           0.000           0.000           0.000           0.000           0.000           0.000    38023185.464   160888540.861           6.731          46.250           0.000           0.000           0.000           0.000  
> 2022  6  2  3 32 32.0000000  0 43
G01  20538675.045   107931466.030       -2005.575          48.500           0.000           0.000           0.000           0.000    20538677.584    84102446.760       -1562.802          47.000           0.000           0.000           0.000           0.000           0.000           0.000           0.000           0.000    20538675.112    80598173.269       -1497.692          52.250  
G03  22357750.876   117490771.602        2360.660          43.500           0.000           0.000           0.000           0.000    22357754.829    91551267.747        1839.561          42.750           0.000           0.000           0.000           0.000           0.000           0.000           0.000           0.000    22357753.666    87736626.124        1762.924          48.000  
G06  24286086.587   127624252.675        3500.301          40.000           0.000           0.000           0.000           0.000    24286095.421    99447502.077        2727.512          42.500           0.000           0.000           0.000           0.000           0.000           0.000           0.000           0.000    24286095.469    95303854.312        2613.715          48.250  
G08  24667008.237   129625990.234       -2775.621          37.750           0.000           0.000           0.000           0.000    24667014.333   101007268.072       -2162.779          37.250           0.000           0.000           0.000           0.000           0.000           0.000           0.000           0.000    24667011.058    96798647.353       -2072.765          43.250  
G14  20251800.505   106423929.248         491.226          47.500           0.000           0.000           0.000           0.000    20251800.133    82927736.842         382.768          46.000           0.000           0.000           0.000           0.000           0.000           0.000           0.000           0.000    20251803.155    79472425.390         366.816          55.000  
G17  21458345.329   112764365.415        1368.895          45.750           0.000           0.000           0.000           0.000    21458345.061    87868326.708        1066.628          43.000           0.000           0.000           0.000           0.000           0.000           0.000           0.000           0.000           0.000           0.000           0.000           0.000  
G19  22887241.158   120273267.962        2604.146          43.000           0.000           0.000           0.000           0.000    22887239.721    93719426.881        2029.206          39.750           0.000           0.000           0.000           0.000           0.000           0.000           0.000           0.000           0.000           0.000           0.000           0.000  
G21  23486284.545   123421255.016       -3081.858          41.750           0.000           0.000           0.000           0.000    23486283.878    96172410.542       -2401.449          37.750           0.000           0.000           0.000           0.000           0.000           0.000           0.000           0.000           0.000           0.000           0.000           0.000  
G28  21500569.830   112986255.538        1954.613          47.000           0.000           0.000           0.000           0.000    21500568.060    88041230.816        1523.070          43.250           0.000           0.000           0.000           0.000           0.000           0.000           0.000           0.000           0.000           0.000           0.000           0.000  
G30  23163835.870   121726778.360       -2982.738          41.500           0.000           0.000           0.000           0.000    23163841.132    94852048.690       -2324.233          43.250           0.000           0.000           0.000           0.000           0.000           0.000           0.000           0.000    23163840.670    90899884.286       -2227.244          49.500  
R02  23242557.541   124026742.215        1460.599          41.000           0.000           0.000           0.000           0.000    23242565.609    96465291.921        1136.052          38.750  
R09  21057594.055   112446377.491        2862.433          49.750           0.000           0.000           0.000           0.000    21057594.300    87458295.147        2226.345          47.500  
R15  22385776.759   119622800.180       -4304.450          48.250           0.000           0.000           0.000           0.000    22385783.945    93039988.524       -3347.859          44.000  
R17  22673847.319   121332335.483       -3350.351          47.000           0.000           0.000           0.000           0.000    22673851.545    94369616.893       -2605.857          42.750  
R18  19785059.204   105613988.288       -1536.533          52.750           0.000           0.000           0.000           0.000    19785057.777    82144211.734       -1195.010          49.250  
R19  20258964.246   108371799.865        1384.173          38.500           0.000           0.000           0.000           0.000    20258966.616    84289183.261        1076.534          46.250  
E02  23408284.675   123011373.981         642.640          46.500    23408285.263    91859139.276         479.887          50.750    23408283.792    94255457.615         492.413          51.750  
E11  23777327.004   124950697.271       -2043.154          40.750    23777323.396    93307323.376       -1525.678          43.000    23777321.921    95741420.426       -1565.400          44.500  
E25  24480267.240   128644672.083       -1942.320          45.500    24480269.595    96065835.188       -1450.446          49.000    24480268.204    98571894.426       -1488.221          51.000  
E30  26980276.363   141782311.451        2644.453          38.250    26980278.346   105876405.724        1974.837          42.500    26980276.536   108638395.877        2026.395          44.750  
E34  26241692.620   137901020.832        2387.315          39.500    26241697.361   102978058.473        1782.752          46.250    26241695.136   105664431.469        1829.262          47.000  
E36  23382233.280   122874462.245         290.517          45.500    23382234.425    91756909.080         216.928          50.500    23382232.907    94150562.557         222.646          51.500  
C01  38057336.212   198174535.967          33.540          43.500           0.000           0.000           0.000           0.000    38057335.198   153241117.054          25.942          45.000           0.000           0.000           0.000           0.000    38057337.199   161033048.590          27.230          42.750           0.000           0.000           0.000           0.000  
C02  38427465.596   200101896.399          38.038          38.250           0.000           0.000           0.000           0.000    38427460.776   154731460.233          29.378          45.500           0.000           0.000           0.000           0.000    38427464.150   162599174.951          30.880          41.750           0.000           0.000           0.000           0.000  
C03  37699124.311   196309230.623          66.015          43.250           0.000           0.000           0.000           0.000    37699121.441   151798739.616          51.069          47.000           0.000           0.000           0.000           0.000    37699121.554   159517320.726          53.679          43.500           0.000           0.000           0.000           0.000  
C04  38900550.980   202565371.475          18.862          39.750           0.000           0.000           0.000           0.000    38900547.315   156636384.649          14.635          44.000           0.000           0.000           0.000           0.000    38900548.272   164600949.071          15.216          41.750           0.000           0.000           0.000           0.000  
C05  39949549.528   208027781.793          41.084          35.500           0.000           0.000           0.000           0.000    39949548.867   160860277.045          31.520          40.000           0.000           0.000           0.000           0.000    39949550.103   169039618.835          33.274          39.500           0.000           0.000           0.000           0.000  
C07  35822470.686   186537004.392          68.083          46.750           0.000           0.000           0.000           0.000    35822463.563   144242217.893          52.643          49.250           0.000           0.000           0.000           0.000    35822463.155   151576564.259          55.290          47.500           0.000           0.000           0.000           0.000  
C08  37789603.901   196780382.399        1466.473          41.500           0.000           0.000           0.000           0.000    37789600.024   152163060.778        1133.964          46.250           0.000           0.000           0.000           0.000    37789598.336   159900157.894        1191.578          43.750           0.000           0.000           0.000           0.000  
C10  36062553.648   187787183.482         378.232          46.500           0.000           0.000           0.000           0.000    36062550.251   145208947.660         292.458          48.500           0.000           0.000           0.000           0.000    36062548.678   152592444.045         307.232          46.750           0.000           0.000           0.000           0.000  
C11  23661301.263   123210607.547        1932.469          44.250           0.000           0.000           0.000           0.000    23661300.149    95274251.854        1494.367          49.000           0.000           0.000           0.000           0.000    23661298.515   100118693.203        1570.282          47.250           0.000           0.000           0.000           0.000  
C12  21956441.914   114332950.594        -250.355          48.500           0.000           0.000           0.000           0.000    21956438.409    88409478.277        -193.599          52.000           0.000           0.000           0.000           0.000    21956437.847    92904873.485        -203.524          50.750           0.000           0.000           0.000           0.000  
C13  38797364.298   202028058.878        1451.106          42.000           0.000           0.000           0.000           0.000    38797369.351   156220924.775        1122.136          44.250           0.000           0.000           0.000           0.000    38797366.177   164164354.993        1179.266          43.500           0.000           0.000           0.000           0.000  
C22  25572567.152   133163060.497        1831.626          43.250           0.000           0.000           0.000           0.000           0.000           0.000           0.000           0.000           0.000           0.000           0.000           0.000    25572561.465   108205875.748        1488.326          44.000           0.000           0.000           0.000           0.000  
C24  23398285.471   121841011.771       -2509.269          48.000           0.000           0.000           0.000           0.000           0.000           0.000           0.000           0.000           0.000           0.000           0.000           0.000    23398282.040    99005788.176       -2039.068          49.750           0.000           0.000           0.000           0.000  
C25  23234559.146   120988446.951         622.899          47.000           0.000           0.000           0.000           0.000           0.000           0.000           0.000           0.000           0.000           0.000           0.000           0.000    23234557.047    98313013.334         506.153          48.750           0.000           0.000           0.000           0.000  
C34  22530304.236   117321205.595        1220.008          49.500           0.000           0.000           0.000           0.000           0.000           0.000           0.000           0.000           0.000           0.000           0.000           0.000    22530303.747    95333087.146         991.316          50.250           0.000           0.000           0.000           0.000  
C38  37037347.598   192863191.275        1204.129          47.500           0.000           0.000           0.000           0.000           0.000           0.000           0.000           0.000           0.000           0.000           0.000           0.000    37037344.678   156717125.542         978.399          49.000           0.000           0.000           0.000           0.000  
C40  35881027.099   186841923.984          69.796          49.500           0.000           0.000           0.000           0.000           0.000           0.000           0.000           0.000           0.000           0.000           0.000           0.000    35881023.691   151824353.340          56.659          50.000           0.000           0.000           0.000           0.000  
C44  22057231.705   114857794.624       -1364.291          51.000           0.000           0.000           0.000           0.000           0.000           0.000           0.000           0.000           0.000           0.000           0.000           0.000    22057229.434    93331356.747       -1108.621          51.000           0.000           0.000           0.000           0.000  
C56  35619216.143   185478606.799         173.164          48.250           0.000           0.000           0.000           0.000           0.000           0.000           0.000           0.000           0.000           0.000           0.000           0.000    35619215.247   150716557.064         140.683          47.750           0.000           0.000           0.000           0.000  
C57  31980672.369   166531756.291       -2259.805          44.250           0.000           0.000           0.000           0.000           0.000           0.000           0.000           0.000           0.000           0.000           0.000           0.000    31980794.726   135321208.784       -1836.356          45.250           0.000           0.000           0.000           0.000  
C59  38023195.736   197996758.654           8.655          45.500           0.000           0.000           0.000           0.000           0.000           0.000           0.000           0.000           0.000           0.000           0.000           0.000    38023182.186   160888527.020           7.057          46.250           0.000           0.000           0.000           0.000  
> 2022  6  2  3 32 34.0000000  0 43
G01  20539438.635   107935478.669       -2007.010          48.500           0.000           0.000           0.000           0.000    20539441.120    84105573.489       -1563.929          47.000           0.000           0.000           0.000           0.000           0.000           0.000           0.000           0.000    20539438.703    80601169.718       -1498.773          52.250  
G03  22356852.648   117486051.428        2359.580          43.500           0.000           0.000           0.000           0.000    22356856.533    91547589.701        1838.630          42.500           0.000           0.000           0.000           0.000           0.000           0.000           0.000           0.000    22356855.455    87733101.347        1761.900          47.750  
G06  24284754.591   127617253.042        3499.426          39.750           0.000           0.000           0.000           0.000    24284763.468    99442047.839        2726.823          42.750           0.000           0.000           0.000           0.000           0.000           0.000           0.000           0.000    24284763.485    95298627.320        2613.277          48.250  
G08  24668064.645   129631542.120       -2776.133          37.750           0.000           0.000           0.000           0.000    24668070.814   101011594.230       -2163.385          36.500           0.000           0.000           0.000           0.000           0.000           0.000           0.000           0.000    24668067.566    96802793.244       -2073.138          43.000  
G14  20251613.821   106422948.298         489.736          47.250           0.000           0.000           0.000           0.000    20251613.463    82926972.460         381.585          45.750           0.000           0.000           0.000           0.000           0.000           0.000           0.000           0.000    20251616.484    79471692.863         365.698          54.750  
G17  21457824.438   112761628.296        1368.243          45.750           0.000           0.000           0.000           0.000    21457824.201    87866193.901        1066.107          43.000           0.000           0.000           0.000           0.000           0.000           0.000           0.000           0.000           0.000           0.000           0.000           0.000  
G19  22886250.141   120268060.253        2603.447          42.500           0.000           0.000           0.000           0.000    22886248.718    93715368.936        2028.657          39.500           0.000           0.000           0.000           0.000           0.000           0.000           0.000           0.000           0.000           0.000           0.000           0.000  
G21  23487457.576   123427419.453       -3082.389          41.750           0.000           0.000           0.000           0.000    23487456.937    96177213.985       -2401.859          38.000           0.000           0.000           0.000           0.000           0.000           0.000           0.000           0.000           0.000           0.000           0.000           0.000  
G28  21499826.080   112982347.240        1953.663          47.000           0.000           0.000           0.000           0.000    21499824.339    88038185.397        1522.334          43.250           0.000           0.000           0.000           0.000           0.000           0.000           0.000           0.000           0.000           0.000           0.000           0.000  
G30  23164971.201   121732744.389       -2983.473          41.500           0.000           0.000           0.000           0.000    23164976.426    94856697.523       -2324.727          42.750           0.000           0.000           0.000           0.000           0.000           0.000           0.000           0.000    23164975.974    90904339.432       -2227.896          49.000  
R02  23242010.478   124023822.718        1458.932          39.500           0.000           0.000           0.000           0.000    23242018.318    96463021.206        1134.841          38.250  
R09  21056522.337   112440654.332        2860.719          49.750           0.000           0.000           0.000           0.000    21056522.509    87453843.814        2225.042          47.750  
R15  22387387.987   119631409.915       -4305.381          48.000           0.000           0.000           0.000           0.000    22387395.108    93046684.987       -3348.604          44.250  
R17  22675099.624   121339036.579       -3350.761          46.750           0.000           0.000           0.000           0.000    22675103.685    94374828.838       -2606.193          42.750  
R18  19785635.117   105617062.381       -1537.595          52.750           0.000           0.000           0.000           0.000    19785633.641    82146602.688       -1195.885          49.000  
R19  20258447.017   108369032.910        1382.682          38.000           0.000           0.000           0.000           0.000    20258449.399    84287031.183        1075.547          46.250  
E02  23408040.357   123010089.932         641.458          46.250    23408040.915    91858180.411         479.003          50.750    23408039.448    94254473.726         491.473          51.750  
E11  23778104.697   124954784.179       -2043.909          40.750    23778101.095    93310375.294       -1526.330          43.000    23778099.633    95744551.962       -1566.089          44.500  
E25  24481006.635   128648557.720       -1943.270          45.500    24481008.999    96068736.800       -1451.201          49.250    24481007.608    98574871.738       -1489.041          51.000  
E30  26979270.023   141777023.021        2643.894          38.500    26979271.977   105872456.582        1974.381          42.750    26979270.205   108634343.730        2025.827          45.000  
E34  26240784.161   137896247.050        2386.477          39.500    26240788.930   102974493.634        1782.063          46.250    26240786.733   105660773.625        1828.656          47.000  
E36  23382122.868   122873882.200         289.520          45.500    23382124.046    91756475.926         216.174          50.500    23382122.526    94150118.112         221.789          51.250  
C01  38057323.387   198174469.121          33.195          43.250           0.000           0.000           0.000           0.000    38057322.362   153241065.367          25.644          45.000           0.000           0.000           0.000           0.000    38057324.369   161032994.279          27.034          42.500           0.000           0.000           0.000           0.000  
C02  38427451.078   200101820.727          37.535          38.250           0.000           0.000           0.000           0.000    38427446.254   154731401.705          29.117          45.500           0.000           0.000           0.000           0.000    38427449.600   162599113.443          30.685          41.500           0.000           0.000           0.000           0.000  
C03  37699099.018   196309098.865          65.652          43.250           0.000           0.000           0.000           0.000    37699096.148   151798637.716          50.817          46.750           0.000           0.000           0.000           0.000    37699096.244   159517213.637          53.418          43.250           0.000           0.000           0.000           0.000  
C04  38900543.827   202565334.203          18.462          39.750           0.000           0.000           0.000           0.000    38900540.179   156636355.837          14.235          44.000           0.000           0.000           0.000           0.000    38900541.116   164600918.784          14.992          41.250           0.000           0.000           0.000           0.000  
C05  39949533.845   208027700.176          40.748          35.000           0.000           0.000           0.000           0.000    39949533.156   160860213.898          31.409          40.250           0.000           0.000           0.000           0.000    39949534.427   169039552.511          33.143          39.000           0.000           0.000           0.000           0.000  
C07  35822444.632   186536868.811          67.524          46.750           0.000           0.000           0.000           0.000    35822437.525   144242113.036          52.261          49.500           0.000           0.000           0.000           0.000    35822437.117   151576454.092          54.862          47.500           0.000           0.000           0.000           0.000  
C08  37789040.752   196777450.173        1465.793          41.500           0.000           0.000           0.000           0.000    37789036.923   152160793.385        1133.377          46.500           0.000           0.000           0.000           0.000    37789035.249   159897775.216        1191.113          43.500           0.000           0.000           0.000           0.000  
C10  36062408.481   187786427.599         377.757          46.500           0.000           0.000           0.000           0.000    36062405.086   145208363.163         292.058          48.500           0.000           0.000           0.000           0.000    36062403.518   152591829.816         306.934          46.500           0.000           0.000           0.000           0.000  
C11  23660559.209   123206743.310        1931.752          44.250           0.000           0.000           0.000           0.000    23660558.056    95271263.776        1493.743          49.000           0.000           0.000           0.000           0.000    23660556.443   100115553.207        1569.695          47.000           0.000           0.000           0.000           0.000  
C12  21956538.231   114333452.247        -251.305          48.500           0.000           0.000           0.000           0.000    21956534.727    88409866.175        -194.279          52.000           0.000           0.000           0.000           0.000    21956534.181    92905281.107        -204.176          50.500           0.000           0.000           0.000           0.000  
C13  38796807.049   202025157.223        1450.529          42.000           0.000           0.000           0.000           0.000    38796812.080   156218681.035        1121.680          44.500           0.000           0.000           0.000           0.000    38796808.945   164161997.166        1178.698          43.000           0.000           0.000           0.000           0.000  
C22  25571863.887   133159398.327        1830.508          43.500           0.000           0.000           0.000           0.000           0.000           0.000           0.000           0.000           0.000           0.000           0.000           0.000    25571858.196   108202899.920        1487.581          43.750           0.000           0.000           0.000           0.000  
C24  23399249.456   121846031.475       -2510.451          47.750           0.000           0.000           0.000           0.000           0.000           0.000           0.000           0.000           0.000           0.000           0.000           0.000    23399246.012    99009867.085       -2039.887          49.500           0.000           0.000           0.000           0.000  
C25  23234320.176   120987202.570         621.428          47.250           0.000           0.000           0.000           0.000           0.000           0.000           0.000           0.000           0.000           0.000           0.000           0.000    23234318.087    98312002.190         505.035          48.500           0.000           0.000           0.000           0.000  
C34  22529835.836   117318766.445        1219.132          49.500           0.000           0.000           0.000           0.000           0.000           0.000           0.000           0.000           0.000           0.000           0.000           0.000    22529835.334    95331105.133         990.646          50.000           0.000           0.000           0.000           0.000  
C38  37036885.231   192860783.650        1203.486          47.500           0.000           0.000           0.000           0.000           0.000           0.000           0.000           0.000           0.000           0.000           0.000           0.000    37036882.327   156715169.149         977.933          48.750           0.000           0.000           0.000           0.000  
C40  35881000.372   186841784.808          69.396          49.250           0.000           0.000           0.000           0.000           0.000           0.000           0.000           0.000           0.000           0.000           0.000           0.000    35880996.966   151824240.263          56.371          49.750           0.000           0.000           0.000           0.000  
C44  22057755.855   114860523.925       -1365.074          50.750           0.000           0.000           0.000           0.000           0.000           0.000           0.000           0.000           0.000           0.000           0.000           0.000    22057753.570    93333574.521       -1109.208          50.750           0.000           0.000           0.000           0.000  
C56  35619149.770   185478261.079         172.568          48.000           0.000           0.000           0.000           0.000           0.000           0.000           0.000           0.000           0.000           0.000           0.000           0.000    35619148.852   150716276.134         140.255          47.500           0.000           0.000           0.000           0.000  
C57  31981540.398   166536276.481       -2260.438          44.250           0.000           0.000           0.000           0.000           0.000           0.000           0.000           0.000           0.000           0.000           0.000           0.000    31981662.778   135324881.784       -1836.682          45.000           0.000           0.000           0.000           0.000  
C59  38023192.483   197996741.671           8.282          45.500           0.000           0.000           0.000           0.000           0.000           0.000           0.000           0.000           0.000           0.000           0.000           0.000    38023178.920   160888513.228           6.731          46.250           0.000           0.000           0.000           0.000  
> 2022  6  2  3 32 36.0000000  0 43
G01  20540202.613   107939493.335       -2007.801          48.500           0.000           0.000           0.000           0.000    20540205.051    84108701.781       -1564.470          47.250           0.000           0.000           0.000           0.000           0.000           0.000           0.000           0.000    20540202.676    80604167.673       -1499.313          52.250  
G03  22355954.788   117481333.169        2358.760          43.750           0.000           0.000           0.000           0.000    22355958.610    91543913.127        1837.913          42.500           0.000           0.000           0.000           0.000           0.000           0.000           0.000           0.000    22355957.603    87729577.959        1761.341          48.000  
G06  24283422.716   127610254.101        3499.370          39.750           0.000           0.000           0.000           0.000    24283431.661    99436594.141        2726.729          42.750           0.000           0.000           0.000           0.000           0.000           0.000           0.000           0.000    24283431.636    95293400.860        2613.156          48.500  
G08  24669121.087   129637094.171       -2776.058          38.250           0.000           0.000           0.000           0.000    24669127.344   101015920.471       -2163.115          36.500           0.000           0.000           0.000           0.000           0.000           0.000           0.000           0.000    24669124.100    96806939.231       -2073.008          43.500  
G14  20251427.566   106421969.585         488.823          47.500           0.000           0.000           0.000           0.000    20251427.220    82926209.821         380.896          46.000           0.000           0.000           0.000           0.000           0.000           0.000           0.000           0.000    20251430.240    79470962.004         365.027          54.750  
G17  21457303.700   112758891.916        1368.020          46.000           0.000           0.000           0.000           0.000    21457303.479    87864061.654        1065.958          43.250           0.000           0.000           0.000           0.000           0.000           0.000           0.000           0.000           0.000           0.000           0.000           0.000  
G19  22885259.221   120262853.065        2603.456          42.250           0.000           0.000           0.000           0.000    22885257.813    93711311.386        2028.666          39.000           0.000           0.000           0.000           0.000           0.000           0.000           0.000           0.000           0.000           0.000           0.000           0.000  
G21  23488630.666   123433584.200       -3082.445          42.500           0.000           0.000           0.000           0.000    23488630.055    96182017.675       -2401.906          38.250           0.000           0.000           0.000           0.000           0.000           0.000           0.000           0.000           0.000           0.000           0.000           0.000  
G28  21499082.574   112978440.209        1953.244          47.000           0.000           0.000           0.000           0.000    21499080.851    88035140.950        1522.008          43.000           0.000           0.000           0.000           0.000           0.000           0.000           0.000           0.000           0.000           0.000           0.000           0.000  
G30  23166106.715   121738711.375       -2983.753          41.500           0.000           0.000           0.000           0.000    23166111.917    94861347.121       -2325.034          42.750           0.000           0.000           0.000           0.000           0.000           0.000           0.000           0.000    23166111.452    90908795.284       -2228.054          49.000  
R02  23241463.882   124020905.931        1457.674          39.500           0.000           0.000           0.000           0.000    23241471.517    96460752.584        1133.816          38.250  
R09  21055451.060   112434933.613        2859.844          49.250           0.000           0.000           0.000           0.000    21055451.181    87449394.384        2224.222          47.750  
R15  22388999.438   119640020.784       -4305.688          48.000           0.000           0.000           0.000           0.000    22389006.488    93053382.312       -3348.865          44.500  
R17  22676351.921   121345737.706       -3350.500          46.750           0.000           0.000           0.000           0.000    22676355.827    94380040.809       -2605.829          42.750  
R18  19786211.317   105620137.931       -1538.116          52.750           0.000           0.000           0.000           0.000    19786209.772    82148994.788       -1196.276          48.750  
R19  20257930.139   108366267.879        1382.105          38.000           0.000           0.000           0.000           0.000    20257932.545    84284880.607        1074.960          46.000  
E02  23407796.337   123008807.452         640.806          46.500    23407796.860    91857222.702         478.649          50.750    23407795.399    94253491.036         491.081          51.500  
E11  23778882.514   124958871.774       -2044.002          40.750    23778878.916    93313427.709       -1526.191          43.250    23778877.478    95747684.024       -1566.154          44.500  
E25  24481746.286   128652444.703       -1943.745          45.500    24481748.658    96071639.405       -1451.508          49.250    24481747.265    98577850.065       -1489.339          51.000  
E30  26978263.775   141771735.049        2643.857          38.750    26978265.694   105868507.774        1974.371          43.500    26978263.954   108630291.905        2025.827          45.500  
E34  26239875.865   137891474.077        2386.356          39.500    26239880.661   102970929.405        1782.016          46.250    26239878.490   105657116.429        1828.470          47.000  
E36  23382012.721   122873303.548         289.036          45.500    23382013.933    91756043.819         215.839          50.500    23382012.408    94149674.730         221.445          51.250  
C01  38057310.562   198174402.288          33.475          43.000           0.000           0.000           0.000           0.000    38057309.535   153241013.693          25.793          45.000           0.000           0.000           0.000           0.000    38057311.541   161032939.979          27.155          42.250           0.000           0.000           0.000           0.000  
C02  38427436.558   200101745.028          37.787          37.750           0.000           0.000           0.000           0.000    38427431.730   154731343.173          29.239          45.750           0.000           0.000           0.000           0.000    38427435.065   162599051.943          30.778          41.500           0.000           0.000           0.000           0.000  
C03  37699073.719   196308967.101          65.820          43.000           0.000           0.000           0.000           0.000    37699070.859   151798535.831          50.985          46.750           0.000           0.000           0.000           0.000    37699070.941   159517106.571          53.558          43.000           0.000           0.000           0.000           0.000  
C04  38900536.672   202565296.943          18.592          39.500           0.000           0.000           0.000           0.000    38900533.035   156636327.006          14.486          44.000           0.000           0.000           0.000           0.000    38900533.952   164600888.477          15.243          41.250           0.000           0.000           0.000           0.000  
C05  39949518.168   208027618.561          40.795          34.750           0.000           0.000           0.000           0.000    39949517.459   160860150.777          31.651          40.250           0.000           0.000           0.000           0.000    39949518.748   169039486.182          33.162          38.750           0.000           0.000           0.000           0.000  
C07  35822418.626   186536733.458          67.710          46.750           0.000           0.000           0.000           0.000    35822411.539   144242008.374          52.335          49.750           0.000           0.000           0.000           0.000    35822411.122   151576344.101          54.936          47.500           0.000           0.000           0.000           0.000  
C08  37788477.711   196774518.493        1465.635          41.250           0.000           0.000           0.000           0.000    37788473.924   152158526.430        1133.415          46.500           0.000           0.000           0.000           0.000    37788472.269   159895392.995        1191.066          43.000           0.000           0.000           0.000           0.000  
C10  36062263.336   187785671.843         377.822          46.000           0.000           0.000           0.000           0.000    36062259.943   145207778.746         292.263          48.500           0.000           0.000           0.000           0.000    36062258.385   152591215.695         307.008          46.250           0.000           0.000           0.000           0.000  
C11  23659817.307   123202879.872        1931.436          44.000           0.000           0.000           0.000           0.000    23659816.125    95268276.330        1493.566          49.250           0.000           0.000           0.000           0.000    23659814.513   100112413.831        1569.565          46.750           0.000           0.000           0.000           0.000  
C12  21956634.737   114333954.903        -251.529          48.000           0.000           0.000           0.000           0.000    21956631.240    88410254.869        -194.493          52.000           0.000           0.000           0.000           0.000    21956630.713    92905689.564        -204.437          50.250           0.000           0.000           0.000           0.000  
C13  38796249.867   202022255.923        1450.547          42.000           0.000           0.000           0.000           0.000    38796254.882   156216437.596        1121.624          44.500           0.000           0.000           0.000           0.000    38796251.798   164159639.674        1178.531          42.750           0.000           0.000           0.000           0.000  
C22  25571160.881   133155737.538        1830.173          43.000           0.000           0.000           0.000           0.000           0.000           0.000           0.000           0.000           0.000           0.000           0.000           0.000    25571155.199   108199925.231        1487.189          43.750           0.000           0.000           0.000           0.000  
C24  23400213.702   121851052.599       -2510.889          47.500           0.000           0.000           0.000           0.000           0.000           0.000           0.000           0.000           0.000           0.000           0.000           0.000    23400210.252    99013947.137       -2040.223          49.250           0.000           0.000           0.000           0.000  
C25  23234081.628   120985960.396         620.571          47.250           0.000           0.000           0.000           0.000           0.000           0.000           0.000           0.000           0.000           0.000           0.000           0.000    23234079.547    98310992.821         504.253          48.500           0.000           0.000           0.000           0.000  
C34  22529367.626   117316328.275        1218.862          49.250           0.000           0.000           0.000           0.000           0.000           0.000           0.000           0.000           0.000           0.000           0.000           0.000    22529367.109    95329123.928         990.385          49.500           0.000           0.000           0.000           0.000  
C38  37036422.975   192858376.589        1203.365          47.250           0.000           0.000           0.000           0.000           0.000           0.000           0.000           0.000           0.000           0.000           0.000           0.000    37036420.084   156713213.207         977.886          48.500           0.000           0.000           0.000           0.000  
C40  35880973.683   186841645.824          69.433          49.250           0.000           0.000           0.000           0.000           0.000           0.000           0.000           0.000           0.000           0.000           0.000           0.000    35880970.271   151824127.309          56.501          49.750           0.000           0.000           0.000           0.000  
C44  22058280.150   114863253.981       -1365.176          50.500           0.000           0.000           0.000           0.000           0.000           0.000           0.000           0.000           0.000           0.000           0.000           0.000    22058277.853    93335792.917       -1109.338          50.500           0.000           0.000           0.000           0.000  
C56  35619083.460   185477915.681         172.624          48.000           0.000           0.000           0.000           0.000           0.000           0.000           0.000           0.000           0.000           0.000           0.000           0.000    35619082.522   150715995.469         140.329          47.250           0.000           0.000           0.000           0.000  
C57  31982408.491   166540796.945       -2260.280          44.000           0.000           0.000           0.000           0.000           0.000           0.000           0.000           0.000           0.000           0.000           0.000           0.000    31982530.886   135328555.031       -1836.664          44.500           0.000           0.000           0.000           0.000  
C59  38023189.230   197996724.683           8.469          45.000           0.000           0.000           0.000           0.000           0.000           0.000           0.000           0.000           0.000           0.000           0.000           0.000    38023175.650   160888499.413           6.936          45.750           0.000           0.000           0.000           0.000  
> 2022  6  2  3 32 38.0000000  0 43
G01  20540966.985   107943510.075       -2008.891          48.250           0.000           0.000           0.000           0.000    20540969.402    84111831.740       -1565.410          47.250           0.000           0.000           0.000           0.000           0.000           0.000           0.000           0.000    20540967.048    80607167.197       -1500.123          52.000  
G03  22355057.293   117476616.831        2357.708          43.500           0.000           0.000           0.000           0.000    22355061.068    91540238.058        1837.214          42.500           0.000           0.000           0.000           0.000           0.000           0.000           0.000           0.000    22355060.123    87726056.021        1760.633          48.000  
G06  24282090.982   127603255.943        3498.904          39.750           0.000           0.000           0.000           0.000    24282100.000    99431141.020        2726.534          42.750           0.000           0.000           0.000           0.000           0.000           0.000           0.000           0.000    24282099.933    95288174.975        2612.812          48.500  
G08  24670177.585   129642646.413       -2776.068          38.250           0.000           0.000           0.000           0.000    24670183.930   101020246.894       -2163.115          36.000           0.000           0.000           0.000           0.000           0.000           0.000           0.000           0.000    24670180.669    96811085.375       -2073.073          43.500  
G14  20251241.757   106420993.179         487.696          47.250           0.000           0.000           0.000           0.000    20251241.416    82925448.984         379.992          45.750           0.000           0.000           0.000           0.000           0.000           0.000           0.000           0.000    20251244.435    79470232.871         364.171          54.750  
G17  21456783.111   112756156.290        1367.684          45.750           0.000           0.000           0.000           0.000    21456782.902    87861929.997        1065.734          43.250           0.000           0.000           0.000           0.000           0.000           0.000           0.000           0.000           0.000           0.000           0.000           0.000  
G19  22884268.413   120257646.480        2603.167          42.000           0.000           0.000           0.000           0.000    22884267.019    93707254.309        2028.443          39.000           0.000           0.000           0.000           0.000           0.000           0.000           0.000           0.000           0.000           0.000           0.000           0.000  
G21  23489803.836   123439749.340       -3082.678          42.500           0.000           0.000           0.000           0.000    23489803.253    96186821.665       -2402.092          38.250           0.000           0.000           0.000           0.000           0.000           0.000           0.000           0.000           0.000           0.000           0.000           0.000  
G28  21498339.318   112974534.489        1952.536          46.750           0.000           0.000           0.000           0.000    21498337.612    88032097.527        1521.458          43.000           0.000           0.000           0.000           0.000           0.000           0.000           0.000           0.000           0.000           0.000           0.000           0.000  
G30  23167242.428   121744679.393       -2984.218          41.500           0.000           0.000           0.000           0.000    23167247.603    94865997.515       -2325.258          42.750           0.000           0.000           0.000           0.000           0.000           0.000           0.000           0.000    23167247.126    90913251.925       -2228.510          49.000  
R02  23240917.811   124017992.020        1456.287          40.750           0.000           0.000           0.000           0.000    23240925.268    96458486.224        1132.568          37.750  
R09  21054380.252   112429215.466        2858.428          49.500           0.000           0.000           0.000           0.000    21054380.330    87444946.921        2223.216          47.750  
R15  22390611.121   119648632.847       -4306.220          48.250           0.000           0.000           0.000           0.000    22390618.106    93060080.559       -3349.219          44.750  
R17  22677604.224   121352438.907       -3350.593          47.000           0.000           0.000           0.000           0.000    22677608.004    94385252.859       -2606.006          42.500  
R18  19786787.824   105623215.105       -1538.871          52.750           0.000           0.000           0.000           0.000    19786786.208    82151388.147       -1196.928          49.000  
R19  20257413.637   108363504.907        1380.950          38.250           0.000           0.000           0.000           0.000    20257416.056    84282731.608        1074.234          46.000  
E02  23407552.621   123007526.573         640.051          46.000    23407553.115    91856266.208         477.988          50.750    23407551.659    94252509.595         490.429          51.750  
E11  23779660.468   124962960.109       -2044.281          40.500    23779656.891    93316480.699       -1526.535          43.000    23779655.454    95750816.638       -1566.350          44.500  
E25  24482486.207   128656333.074       -1944.462          45.250    24482488.585    96074543.061       -1452.085          49.250    24482487.189    98580829.466       -1489.926          51.250  
E30  26977257.641   141766447.636        2643.717          38.250    26977259.523   105864559.384        1974.073          43.750    26977257.807   108626240.509        2025.622          45.750  
E34  26238967.770   137886702.077        2385.676          39.500    26238972.578   102967365.899        1781.625          46.250    26238970.420   105653459.943        1828.088          47.250  
E36  23381902.859   122872726.377         288.226          45.250    23381904.102    91755612.818         215.243          50.500    23381902.572    94149232.480         220.867          51.500  
C01  38057297.757   198174335.544          33.410          43.000           0.000           0.000           0.000           0.000    38057296.719   153240962.072          25.839          45.000           0.000           0.000           0.000           0.000    38057298.724   161032885.731          27.192          42.500           0.000           0.000           0.000           0.000  
C02  38427422.057   200101669.408          37.731          38.000           0.000           0.000           0.000           0.000    38427417.221   154731284.693          29.341          45.750           0.000           0.000           0.000           0.000    38427420.545   162598990.504          30.778          41.500           0.000           0.000           0.000           0.000  
C03  37699048.430   196308835.406          65.848          43.000           0.000           0.000           0.000           0.000    37699045.582   151798434.008          50.892          46.500           0.000           0.000           0.000           0.000    37699045.653   159516999.559          53.623          43.250           0.000           0.000           0.000           0.000  
C04  38900529.530   202565259.736          18.760          39.250           0.000           0.000           0.000           0.000    38900525.905   156636298.251          14.449          43.750           0.000           0.000           0.000           0.000    38900526.812   164600858.276          15.094          41.250           0.000           0.000           0.000           0.000  
C05  39949502.485   208027536.996          40.953          35.000           0.000           0.000           0.000           0.000    39949501.776   160860087.736          31.446          39.750           0.000           0.000           0.000           0.000    39949503.085   169039419.931          33.041          38.750           0.000           0.000           0.000           0.000  
C07  35822392.674   186536598.394          67.403          46.750           0.000           0.000           0.000           0.000    35822385.608   144241903.929          52.186          49.500           0.000           0.000           0.000           0.000    35822385.187   151576234.352          54.890          47.750           0.000           0.000           0.000           0.000  
C08  37787914.788   196771587.404        1465.532          41.250           0.000           0.000           0.000           0.000    37787911.035   152156259.937        1133.145          46.000           0.000           0.000           0.000           0.000    37787909.404   159893011.262        1190.750          43.250           0.000           0.000           0.000           0.000  
C10  36062118.227   187784916.295         377.757          46.000           0.000           0.000           0.000           0.000    36062114.849   145207194.516         292.123          48.250           0.000           0.000           0.000           0.000    36062113.287   152590601.740         307.027          46.250           0.000           0.000           0.000           0.000  
C11  23659075.570   123199017.315        1931.147          44.000           0.000           0.000           0.000           0.000    23659074.364    95265289.565        1493.306          49.000           0.000           0.000           0.000           0.000    23659072.759   100109275.213        1569.211          46.750           0.000           0.000           0.000           0.000  
C12  21956731.446   114334458.645        -252.125          48.000           0.000           0.000           0.000           0.000    21956727.958    88410644.392        -194.921          51.750           0.000           0.000           0.000           0.000    21956727.450    92906098.891        -204.847          50.500           0.000           0.000           0.000           0.000  
C13  38795692.781   202019355.129        1450.314          41.750           0.000           0.000           0.000           0.000    38795697.772   156214194.498        1121.568          44.250           0.000           0.000           0.000           0.000    38795694.733   164157282.516        1178.549          43.000           0.000           0.000           0.000           0.000  
C22  25570458.151   133152078.233        1829.288          43.000           0.000           0.000           0.000           0.000           0.000           0.000           0.000           0.000           0.000           0.000           0.000           0.000    25570452.493   108196951.763        1486.389          43.750           0.000           0.000           0.000           0.000  
C24  23401178.226   121856075.212       -2511.634          47.500           0.000           0.000           0.000           0.000           0.000           0.000           0.000           0.000           0.000           0.000           0.000           0.000    23401174.787    99018028.436       -2040.958          49.250           0.000           0.000           0.000           0.000  
C25  23233843.513   120984720.490         619.388          47.250           0.000           0.000           0.000           0.000           0.000           0.000           0.000           0.000           0.000           0.000           0.000           0.000    23233841.440    98309985.288         503.387          48.750           0.000           0.000           0.000           0.000  
C34  22528899.620   117313891.169        1218.303          49.250           0.000           0.000           0.000           0.000           0.000           0.000           0.000           0.000           0.000           0.000           0.000           0.000    22528899.086    95327143.573         990.059          49.750           0.000           0.000           0.000           0.000  
C38  37035960.840   192855970.152        1203.104          47.250           0.000           0.000           0.000           0.000           0.000           0.000           0.000           0.000           0.000           0.000           0.000           0.000    37035957.967   156711257.787         977.663          48.750           0.000           0.000           0.000           0.000  
C40  35880947.035   186841507.060          69.349          49.250           0.000           0.000           0.000           0.000           0.000           0.000           0.000           0.000           0.000           0.000           0.000           0.000    35880943.628   151824014.560          56.408          50.000           0.000           0.000           0.000           0.000  
C44  22058804.603   114865984.889       -1365.623          50.500           0.000           0.000           0.000           0.000           0.000           0.000           0.000           0.000           0.000           0.000           0.000           0.000    22058802.298    93338011.997       -1109.636          50.750           0.000           0.000           0.000           0.000  
C56  35619017.225   185477570.687         172.400          47.750           0.000           0.000           0.000           0.000           0.000           0.000           0.000           0.000           0.000           0.000           0.000           0.000    35619016.269   150715715.135         140.087          47.500           0.000           0.000           0.000           0.000  
C57  31983276.661   166545317.785       -2260.540          44.250           0.000           0.000           0.000           0.000           0.000           0.000           0.000           0.000           0.000           0.000           0.000           0.000    31983399.062   135332228.575       -1836.785          45.000           0.000           0.000           0.000           0.000  
C59  38023185.988   197996707.768           8.422          45.000           0.000           0.000           0.000           0.000           0.000           0.000           0.000           0.000           0.000           0.000           0.000           0.000    38023172.395   160888485.669           6.880          46.000           0.000           0.000           0.000           0.000  
> 2022  6  2  3 32 40.0000000  0 43
G01  20541731.712   107947528.716       -2009.692          48.250           0.000           0.000           0.000           0.000    20541734.117    84114963.137       -1566.071          47.000           0.000           0.000           0.000           0.000           0.000           0.000           0.000           0.000    20541731.774    80610168.125       -1500.747          52.000  
G03  22354160.124   117471902.218        2356.935          43.250           0.000           0.000           0.000           0.000    22354163.882    91536564.360        1836.581          42.750           0.000           0.000           0.000           0.000           0.000           0.000           0.000           0.000    22354162.976    87722535.387        1760.074          48.000  
G06  24280759.354   127596258.296        3498.821          39.750           0.000           0.000           0.000           0.000    24280768.450    99425688.346        2726.292          42.000           0.000           0.000           0.000           0.000           0.000           0.000           0.000           0.000    24280768.332    95282949.491        2612.719          47.500  
G08  24671234.110   129648198.646       -2776.003          38.750           0.000           0.000           0.000           0.000    24671240.490   101024573.303       -2162.965          35.750           0.000           0.000           0.000           0.000           0.000           0.000           0.000           0.000    24671237.236    96815231.512       -2072.933          43.500  
G14  20251056.349   106420018.882         486.718          47.250           0.000           0.000           0.000           0.000    20251056.014    82924689.793         379.219          45.750           0.000           0.000           0.000           0.000           0.000           0.000           0.000           0.000    20251059.031    79469505.307         363.481          54.750  
G17  21456262.635   112753421.253        1367.424          46.000           0.000           0.000           0.000           0.000    21456262.445    87859798.803        1065.520          43.000           0.000           0.000           0.000           0.000           0.000           0.000           0.000           0.000           0.000           0.000           0.000           0.000  
G19  22883277.682   120252440.278        2603.112          42.250           0.000           0.000           0.000           0.000    22883276.305    93703197.533        2028.396          39.500           0.000           0.000           0.000           0.000           0.000           0.000           0.000           0.000           0.000           0.000           0.000           0.000  
G21  23490977.044   123445914.647       -3082.622          42.500           0.000           0.000           0.000           0.000    23490976.472    96191625.823       -2402.045          38.000           0.000           0.000           0.000           0.000           0.000           0.000           0.000           0.000           0.000           0.000           0.000           0.000  
G28  21497596.271   112970629.866        1952.145          47.000           0.000           0.000           0.000           0.000    21497594.583    88029054.983        1521.151          43.000           0.000           0.000           0.000           0.000           0.000           0.000           0.000           0.000           0.000           0.000           0.000           0.000  
G30  23168378.300   121750648.263       -2984.721          41.750           0.000           0.000           0.000           0.000    23168383.447    94870648.558       -2325.593          42.750           0.000           0.000           0.000           0.000           0.000           0.000           0.000           0.000    23168382.950    90917709.173       -2228.715          49.250  
R02  23240372.237   124015080.762        1455.113          40.750           0.000           0.000           0.000           0.000    23240379.540    96456221.973        1131.488          37.750  
R09  21053309.880   112423499.689        2857.460          49.500           0.000           0.000           0.000           0.000    21053309.923    87440501.297        2222.443          47.500  
R15  22392222.968   119657245.731       -4306.583          48.000           0.000           0.000           0.000           0.000    22392229.894    93066779.466       -3349.582          44.500  
R17  22678856.466   121359139.825       -3350.267          47.000           0.000           0.000           0.000           0.000    22678860.150    94390464.681       -2605.792          42.750  
R18  19787364.582   105626293.577       -1539.411          52.500           0.000           0.000           0.000           0.000    19787362.886    82153782.516       -1197.403          48.750  
R19  20256897.466   108360743.699        1380.242          38.000           0.000           0.000           0.000           0.000    20256899.901    84280584.028        1073.517          45.750  
E02  23407309.179   123006247.123         639.530          46.250    23407309.642    91855310.778         477.578          50.750    23407308.189    94251529.239         489.964          51.500  
E11  23780438.532   124967049.037       -2044.477          40.500    23780434.970    93319534.104       -1526.573          43.250    23780433.543    95753949.707       -1566.592          44.250  
E25  24483226.362   128660222.637       -1944.974          45.500    24483228.737    96077447.601       -1452.449          49.250    24483227.340    98583809.780       -1490.391          51.250  
E30  26976251.563   141761160.535        2643.559          38.500    26976253.419   105860611.243        1974.064          43.000    26976251.723   108622189.371        2025.556          45.000  
E34  26238059.819   137881930.754        2385.508          40.250    26238064.627   102963802.909        1781.411          46.000    26238062.490   105649804.019        1827.883          47.250  
E36  23381793.237   122872150.452         287.741          45.500    23381794.508    91755182.747         214.870          50.500    23381792.975    94148791.200         220.393          51.500  
C01  38057284.924   198174268.682          33.577          43.000           0.000           0.000           0.000           0.000    38057283.887   153240910.378          25.867          45.250           0.000           0.000           0.000           0.000    38057285.888   161032831.402          27.276          42.250           0.000           0.000           0.000           0.000  
C02  38427407.526   200101593.642          38.141          38.750           0.000           0.000           0.000           0.000    38427402.687   154731226.118          29.378          45.750           0.000           0.000           0.000           0.000    38427406.000   162598928.935          30.880          41.500           0.000           0.000           0.000           0.000  
C03  37699023.119   196308703.579          65.978          43.250           0.000           0.000           0.000           0.000    37699020.277   151798332.072          51.059          46.750           0.000           0.000           0.000           0.000    37699020.338   159516892.448          53.660          43.250           0.000           0.000           0.000           0.000  
C04  38900522.372   202565222.438          18.769          39.250           0.000           0.000           0.000           0.000    38900518.749   156636269.404          14.570          44.250           0.000           0.000           0.000           0.000    38900519.648   164600827.968          15.243          41.000           0.000           0.000           0.000           0.000  
C05  39949486.787   208027455.310          40.879          34.000           0.000           0.000           0.000           0.000    39949486.057   160860024.549          31.632          39.750           0.000           0.000           0.000           0.000    39949487.390   169039353.535          33.311          39.000           0.000           0.000           0.000           0.000  
C07  35822366.736   186536463.411          67.496          46.750           0.000           0.000           0.000           0.000    35822359.695   144241799.554          52.177          49.500           0.000           0.000           0.000           0.000    35822359.268   151576124.672          54.899          47.750           0.000           0.000           0.000           0.000  
C08  37787351.953   196768656.732        1465.281          41.500           0.000           0.000           0.000           0.000    37787348.214   152153993.733        1133.051          46.250           0.000           0.000           0.000           0.000    37787346.606   159890629.812        1190.768          43.500           0.000           0.000           0.000           0.000  
C10  36061973.111   187784160.716         377.859          46.250           0.000           0.000           0.000           0.000    36061969.747   145206610.258         292.123          48.250           0.000           0.000           0.000           0.000    36061968.191   152589987.786         306.999          46.500           0.000           0.000           0.000           0.000  
C11  23658333.959   123195155.434        1930.877          44.000           0.000           0.000           0.000           0.000    23658332.732    95262303.314        1493.017          48.750           0.000           0.000           0.000           0.000    23658331.120   100106137.086        1569.025          46.500           0.000           0.000           0.000           0.000  
C12  21956828.323   114334963.268        -252.460          48.000           0.000           0.000           0.000           0.000    21956824.847    88411034.604        -195.238          52.000           0.000           0.000           0.000           0.000    21956824.355    92906508.929        -205.145          50.500           0.000           0.000           0.000           0.000  
C13  38795135.756   202016454.622        1450.212          41.750           0.000           0.000           0.000           0.000    38795140.729   156211951.648        1121.391          44.250           0.000           0.000           0.000           0.000    38795137.729   164154925.607        1178.437          42.750           0.000           0.000           0.000           0.000  
C22  25569755.659   133148420.192        1828.711          42.750           0.000           0.000           0.000           0.000           0.000           0.000           0.000           0.000           0.000           0.000           0.000           0.000    25569750.021   108193979.295        1486.053          43.500           0.000           0.000           0.000           0.000  
C24  23402142.991   121861099.091       -2512.081          47.500           0.000           0.000           0.000           0.000           0.000           0.000           0.000           0.000           0.000           0.000           0.000           0.000    23402139.563    99022110.746       -2041.322          49.500           0.000           0.000           0.000           0.000  
C25  23233605.796   120983482.643         618.504          47.250           0.000           0.000           0.000           0.000           0.000           0.000           0.000           0.000           0.000           0.000           0.000           0.000    23233603.728    98308979.436         502.558          48.750           0.000           0.000           0.000           0.000  
C34  22528431.776   117311454.914        1217.996          49.250           0.000           0.000           0.000           0.000           0.000           0.000           0.000           0.000           0.000           0.000           0.000           0.000    22528431.225    95325163.910         989.724          49.750           0.000           0.000           0.000           0.000  
C38  37035498.795   192853564.154        1203.002          47.250           0.000           0.000           0.000           0.000           0.000           0.000           0.000           0.000           0.000           0.000           0.000           0.000    37035495.935   156709302.727         977.458          48.750           0.000           0.000           0.000           0.000  
C40  35880920.393   186841368.335          69.452          49.250           0.000           0.000           0.000           0.000           0.000           0.000           0.000           0.000           0.000           0.000           0.000           0.000    35880916.990   151823901.833          56.399          50.000           0.000           0.000           0.000           0.000  
C44  22059329.172   114868716.422       -1365.865          50.250           0.000           0.000           0.000           0.000           0.000           0.000           0.000           0.000           0.000           0.000           0.000           0.000    22059326.864    93340231.593       -1109.869          50.500           0.000           0.000           0.000           0.000  
C56  35618951.022   185477225.868         172.512          48.000           0.000           0.000           0.000           0.000           0.000           0.000           0.000           0.000           0.000           0.000           0.000           0.000    35618950.051   150715434.942         140.069          47.500           0.000           0.000           0.000           0.000  
C57  31984144.868   166549838.790       -2260.494          44.250           0.000           0.000           0.000           0.000           0.000           0.000           0.000           0.000           0.000           0.000           0.000           0.000    31984267.272   135335902.264       -1836.868          45.000           0.000           0.000           0.000           0.000  
C59  38023182.717   197996690.701           8.711          45.250           0.000           0.000           0.000           0.000           0.000           0.000           0.000           0.000           0.000           0.000           0.000           0.000    38023169.118   160888471.821           6.964          46.000           0.000           0.000           0.000           0.000  
